I_ID,DIRECTION_INDEX,C_NAME,longitude,latitude,location
20b5e1cf8694af7a3c1ba4a87f073021,2,裕华路站前街西向东,114.48605550783516,38.03529867581054,二环内
f4dd765c12f2ef67f98f3558c282a9cd,1,南二环富强大街东向西,114.52205733059905,38.00145704130892,二环内
d8700cbd38cc9f30cecb34f0c195b137,1,南二环汇祥路桥上东向西,114.49002275629013,38.003091916667564,二环内
b4d168b48157c623fbd095b4a565b5bb,1,北二环沿东街东向西,114.52060659209137,38.07936220460914,二环内
4a08142c38dbe374195d41c04562d9f8,2,北二环中华大街西向东,114.48371133753875,38.083652498332185,二环内
299a23a2291e2126b91d54f3601ec162,3,东二环学苑路北南向北,114.57785177591313,38.01600093743857,二环内
a89cf525e1d9f04d16ce31165e139a4b,2,南二环富强大街西向东,114.5222303059323,38.00133202316462,二环内
6c340f25839e6acdc73414517203f5f0,2,南二环汇祥路桥上西向东,114.48592147124181,38.00379265793801,二环内
43dd49b4fdb9bede653e94468ff8df1e,3,西二环(新石中路-槐安路)南向北,114.43765508307976,38.01742204303651,二环内
31857b449c407203749ae32dd0e7d64a,4,西二环(新石中路槐安路)北向南,114.43745701926422,38.015988991343455,二环内
53adaf494dc89ef7196d73636eb2451b,4,西二环建国路南北向南,114.43754305263332,38.02900501462815,二环内
fc2c7c47b918d0c2d792a719dfb602ef,2,北二环谈固北大街东西向东主路,114.5670663452299,38.07045166751006,二环内
dc58e3a306451c9d670adcd37004f48f,2,北二环沿东街西向东,114.52049360671677,38.078818215566066,二环内
1b0114c51cc532ed34e1954b5b9e4b58,4,中华大街新石南路,114.47740454523243,38.00840185490865,二环内
1b0114c51cc532ed34e1954b5b9e4b58,3,中华大街新石南路,114.47751956062983,38.008241868077654,二环内
390e982518a50e280d8e2b535462ec1f,3,体育大街和平高架桥,114.532411614621,38.0571677424382,二环内
46072631582fc240dd2674a7d063b040,1,南二环红旗大街桥上东向西,114.45912711618503,38.00460399440255,二环内
8a1e808b55fde9455cb3d8857ed88389,2,南二环红旗大街桥上西向东,114.45957422116409,38.00446908114898,二环内
062ddb6c727310e76b6200b7c71f63b5,1,南二环翟营大街桥上东向西,114.5554198832593,38.00220039984513,二环内
522a9ae9a99880d39e5daec35375e999,2,南二环翟营大街桥上西向东,114.55541688408137,38.00211140049478,二环内
43baa6762fa81bb43b39c62553b2970d,1,北二环中华大街东向西,114.48392535850559,38.08414251636468,二环内
36a16a2505369e0c922b6ea7a23a56d2,4,东二环与跃进路北向南,114.57692809628718,38.04876717689474,二环内
818f4654ed39a1c147d1e51a00ffb4cb,3,东二环与跃进路南向北,114.57714902233872,38.04893711997714,二环内
e5e63da79fcd2bebbd7cb8bf1c1d0274,3,东二环裕华路南南向北,114.57705404901363,38.033547144066816,二环内
d91d1b4d82419de8a614abce9cc0e6d4,1,裕华路西二环东向西,114.43814124568192,38.03477917028438,二环内
a26398dca6f47b49876cbaffbc9954f9,1,和平路育才街,114.52803042650454,38.053861352314456,二环内
b1563a78ec59337587f6ab6397699afc,2,和平路育才街西向东,114.5279544396871,38.053782362189494,二环内
8b4066554730ddfaa0266346bdc1b202,3,西二环新华路桥上南向北,114.43604558076039,38.049147622419774,二环内
754dda4b1ba34c6fa89716b85d68532b,4,西二环新华路桥上北向南,114.43584451572914,38.0491285693789,二环内
b9d487a30398d42ecff55c228ed5652b,1,北二环建华大街桥上东向西,114.5434761575034,38.076411875434964,二环内
2cbca44843a864533ec05b321ae1f9d1,2,裕华路东二环西向东,114.5781356873685,38.036799865134824,二环内
b59c67bf196a4758191e42f76670ceba,2,裕华路青园街终端,114.51744794991264,38.035670483038395,二环内
b59c67bf196a4758191e42f76670ceba,1,裕华路青园街终端,114.51740995437447,38.03578448622519,二环内
dd77279f7d325eec933f05b1672f6a1f,1,和平路红军街东向西,114.46942731507761,38.059030796227134,二环内
0eec27c419d0fe24e53c90338cdc8bc6,2,和平路红军街西向东,114.46935530176597,38.058789785231205,二环内
c60d060b946d6dd6145dcbad5c4ccf6f,2,槐安路红旗大街高架桥终端,114.45973627246111,38.02477011634236,二环内
c60d060b946d6dd6145dcbad5c4ccf6f,1,槐安路红旗大街高架桥终端,114.45913813212259,38.02486900042094,二环内
3a15c7d0bbe60300a39f76f8a5ba6896,3,中华北大街联盟路终端,114.47856575332973,38.078677997544794,二环内
ffeed84c7cb1ae7bf4ec4bd78275bb98,2,槐安路时光街东终端,114.43087386960276,38.02438923547543,二环外三环内
ffeed84c7cb1ae7bf4ec4bd78275bb98,1,槐安路时光街东终端,114.43087286930455,38.0244832352055,二环外三环内
47a658229eb2368a99f1d032c8848542,2,槐安路翟营大街高架桥终端,114.55498202165664,38.022641500742516,二环内
47a658229eb2368a99f1d032c8848542,1,槐安路翟营大街高架桥终端,114.55483806333334,38.02271953262434,二环内
df0aab058ce179e4f7ab135ed4e641a9,1,槐安路平安大街东向西,114.49899002287333,38.02234819204335,二环内
e22312179bf43e61576081a2f250f845,4,中华大街新华路北终端,114.47724655489806,38.04846284512111,二环内
e22312179bf43e61576081a2f250f845,3,中华大街新华路北终端,114.47743958204482,38.04964586760704,二环内
a3fb4fbf9a6f9cf09166aa9c20cbc1ad,2,槐安路建设大街西向东,114.50884370695857,38.02200202011786,二环内
33ceb07bf4eeb3da587e268d663aba1a,1,北二环谈固大街桥上东向西,114.5631745783785,38.07243361312918,二环内
a4d2f0d23dcc84ce983ff9157f8b7f88,1,北二环红星街桥上东向西,114.4934209780815,38.08294408334779,二环内
0ae3f79a30234b6c45a6f7d298ba1310,2,裕华路东大街东由西向东1-5,114.5244899964603,38.03576278335592,二环内
6f4920ea25403ec77bee9efce43ea25e,2,槐安路青园街东由西向东1-4,114.5198866407305,38.02180826283332,二环内
b5f1e8fb36cd7fbeb7988e8639ac79e9,2,裕华路青园街东由西向东1-5,114.51837584055654,38.03564940376051,二环内
814a9c18f5abff398787c9cfcbf3d80c,2,裕华路翟营大街东由西向东1-4,114.55441119410702,38.036328628825466,二环内
325995af77a0e8b06d1204a171010b3a,2,裕华路体育大街东由西向东1-4,114.53330242153089,38.03590960507746,二环内
296472c9542ad4d4788d543508116cbc,2,裕华路谈固西街东由西向东1-4,114.55827805858176,38.03639075927482,二环内
07cb5f86508f146774a2fac4373a8e50,1,槐安路育才街西由东向西1-4,114.52829835546174,38.02219731069199,二环内
4b86abe48d358ecf194c56c69108433e,3,槐北路青园街北由南向北1,114.51765692369621,38.033155464953104,二环内
6492d38d732122c58b44e3fdc3e9e9f3,2,塔南路裕翔街东由西向东1-3,114.52961710684733,38.005841129613486,二环内
819e3d6c1381eac87c17617e5165f38c,4,槐北路富强大街南由北向南1-2,114.52292122958913,38.03116395747701,二环内
f410588e48dc83f2822a880a68f78923,1,塔南路建华大街西由东向西1-3,114.54627540270775,38.00621532442073,二环内
654ad60ebd1ae29cedc37da04b6b0672,1,槐安路谈固南大街西由东向西1-4,114.56209588952963,38.0229488664278,二环内
54ff9e9e3a2ec0300d4ce11261f5169f,2,塔南路体育大街东由西向东1-3,114.53475310262029,38.005930374077096,二环内
850af92f8d9903e7a4e0559a98ecc857,1,塔南路体育大街西由东向西1-3,114.53346536681704,38.00601257332263,二环内
e0a209539d1e74ab9fe46b9e01a19a97,1,东岗路青园街东由东向西1,114.51887576327123,38.015368354311406,二环内
f80ff32e08a25270b5f252ce39522f72,2,东岗路建华大街东由西向东1-2,114.5478090075248,38.01588602044562,二环内
4d6b3e38b952600251ee92fe603170ff,2,裕华路谈固大街东由西向东1-4,114.56250876824296,38.03647676982769,二环内
d3a7f48c12e697d50c8a7ae7684644ef,2,东岗路青园街东由西向东1,114.51861279549232,38.01533737777585,二环内
bf424cb7b0dea050a42b9739eb261a3a,1,东岗路建华大街东由东向西1-2,114.54829787772589,38.01591192139405,二环内
0b1ec366924b26fc98fa7b71a9c249cf,2,塔南路建华大街东由西向东1-3,114.54781499987067,38.00616001718454,二环内
b2ab001909a8a6f04b51920306046ce5,3,槐中路青园街北由南向北1,114.51776090823753,38.02903145518308,二环内
cf2226ddd41b1a2d0ae51dab54d32c36,2,槐安路雅清街东由西向东1-3,114.56698135137614,38.022752685479496,二环内
a03fa30821986dff10fc66647c84c9c3,2,槐安路建设大街东由西向东1-2,114.51420328082193,38.02173272506251,二环内
05546b0e38ab9175cd905eebcc6ebb76,2,裕华富强东南角由西向东车尾1-5,114.52406106253234,38.03574183231966,二环内
01931a6925d3de09e5f87419d9d55055,1,槐安路青园街西由东向西1-4,114.51780389761804,38.02210844979299,二环内
bdc4626aa1d1df8e14d80d345b2a442d,2,槐北路育才街东由西向东1,114.53234460932035,38.032117747741395,二环内
3937230de3c8041e4da6ac3246a888e8,2,裕华路谈固东街由西向东车尾1-5,114.57040325112271,38.036617836703094,二环内
92bbd31f8e0e43a7da8a6295b251725f,1,塔南路汇通路东侧由东向西1-2,114.50267596576009,38.00918918105456,二环内
02b1be0d48924c327124732726097157,2,塔南路汇通路东侧由西向东1-2,114.50244597124448,38.00928118354124,二环内
abdbeb4d8dbe30df8430a8394b7218ef,2,槐北路育才街西由西向东1,114.52745051006589,38.03201942284785,二环内
3b92d18aa7a6176dd37d372bc2f1eb71,2,塔南路建设大街西侧由西向东1-3,114.51108053696748,38.00549890922107,二环内
5227b6aaf294f5f027273aebf16015f2,1,槐中路体育大街西由东向西1,114.53246458318134,38.02869972923723,二环内
bd5af7cd922fd2603be4ee3dc43b0b77,1,东岗路富强大街东由东向西1-2,114.5240470488149,38.01546182897633,二环内
cd4bb35c75ba84b4f39e547b1416fd35,1,塔南路建设大街西侧由东向西1-3,114.51235543423982,38.005628837864904,二环内
f15d337c70078947cfe1b5d6f0ed3f13,2,槐中路体育大街西由西向东1,114.53184470439933,38.028657820415745,二环内
a869ccbcbd9568808b8497e28275c7c8,1,槐中路建华大街东由东向西1,114.54691525078296,38.028967202170755,二环内
f6e794a75c5d51de081dbefa224304f9,2,塔南路富强大街东侧由西向东1-3,114.5245869580249,38.00579276457873,二环内
c902b497eb972281fb5b4e206db38ee6,2,槐安路育才街东由西向东1-4,114.5303159901481,38.022034037180354,二环内
fca0789e7891cbc0583298a238316122,2,槐中路建华大街东由西向东1,114.54682927321676,38.02893521928394,二环内
9a49a25d845a483fae4be7e341368e36,4,槐北路东二环南由北向南1-5,114.57697407503157,38.03129016456955,二环内
4e62e752ae53fb6a6eebd0f6146aa702,2,槐中路翟营大街西由西向东1,114.55324052456477,38.029038883781794,二环内
9bb6dee73b8b0ca97466ccb24fff3139,1,塔南路富强大街西侧由东向西1-3,114.52248827248931,38.00578599724131,二环内
1943102704f8f8f3302c2b730728e023,3,槐北路东二环南由南向北1-5,114.57711202907817,38.031986129067846,二环内
37d097caf1299d9aa79c2c2b843d2d78,1,槐中路翟营大街西由东向西1,114.5542932239246,38.029090653760186,二环内
23c97e9cb93576e45d2feaf00d0e8502,1,南二环富强大街西由东向西1-5,114.52209332549891,38.00145503755153,二环内
5d6646aad9bcc0be55b2c82f69750387,1,槐中路富强大街西由东向西1,114.52291022913155,38.02853595804936,二环内
2a34abd6ebbd7fcf5a4421229c946c0a,3,东岗路建设大街北侧由南向北1-3,114.51260342213573,38.016646826284024,二环内
9f44e956e3a2b7b5598c625fcc802c36,2,南二环富强大街西由西向东1-5,114.52228029880033,38.0013320179067,二环内
0d73a25092e5c1c9769a9f3255caa65a,2,槐中路富强大街西由西向东1,114.52247829183035,38.02848900433067,二环内
350db081a661525235354dd3e19b8c05,2,槐安路建华大街东由西向东1-6,114.54707220554502,38.02234916965419,二环内
a381c2c35c9157f6b67fd07d5a200ae1,3,南二环体育大街北由南向北1-2,114.53413322975355,38.00452247039955,二环内
d542599794c1cf067d90638b5d3911f3,3,裕华路育才街南由南向北1,114.52826337118007,38.034776318160596,二环内
1819932ff5cf474f4f19e7c7024640c2,4,石栾路建设大街北由北向南1-2,114.51267640860277,38.00783881932207,二环内
333ac5d90817d69113471fbb6e531bee,2,塔南路青园街西侧由西向东1-3,114.51668301187186,38.00559853740234,二环内
6e5025ccc7d638ae4e724da8938450a6,3,石栾路建设大街北由南向北1-2,114.51278939825873,38.00719181224555,二环内
c3e4035af2a1cde9f21e1ae1951ac80b,1,塔南路裕翔街西侧由东向西1-3,114.52787141755176,38.005867362103,二环内
8929c70f8d710e412d38da624b21c3c8,1,塔南路谈固东街西由东向西1-3,114.57046721812249,38.006699817856514,二环内
2596a54cdbb555cfd09cd5d991da0f55,1,塔南路谈固大街东由东向西1-2,114.56443715135882,38.00658330350672,二环内
211c1e0b83b9c69fa9c4bdede203c1e3,2,槐安路煤机街东由西向东1-4,114.55149701060414,38.02248625728127,二环内
169779d3852b32ce8b1a1724dbf5217d,2,槐北路青园街东由西向东1,114.52062255209054,38.03189519452281,二环内
100d9f30ca54b18d14821dc88fea0631,2,槐北路建设大街东由西向东1,114.51606310056111,38.03184259298463,二环内
14ea0d5b0cf49525d1866cb1e95ada5d,2,东岗路体育大街东由西向东1,114.5353349875817,38.01560928440212,二环内
ca0daec69b5adc880fb464895726dbdf,1,槐中路建华大街西由东向西1,114.54610546112296,38.02895136250246,二环内
25db67c5657914454081c6a18e93d6dd,2,槐中路建华大街西由西向东1,114.54613845258517,38.0289233560049,二环内
ea119a40c1592979f51819b0bd38d39d,1,东岗路体育大街东由东向西1,114.53515102638634,38.0156803136844,二环内
6832a7b24bc06775d02b7406880b93fc,1,槐中路谈固大街东由东向西1,114.56338849082047,38.02926855885096,二环内
5249ee8e0cff02ad6b4cc0ee0e50b7d1,2,槐中路谈固大街东由西向东1,114.56179598526019,38.029205938279475,二环内
e45823afe1e5120cec11fc4c379a0c67,4,槐安路体育大街南由北向南1-3,114.53345537913616,38.02012157839274,二环内
06d5ae105ea1bea4d800bc96491876e9,1,东岗路谈固大街东由东向西1-2,114.56378036202685,38.01621046316329,二环内
cd3afef9b8b89558cd56638c3631868a,2,东岗路谈固大街东由西向东1-2,114.56372138047088,38.016163477334125,二环内
3323fe11e9595c09af38fe67567a9394,4,槐中路富强大街南由北向南1-2,114.52311119788436,38.02637193570838,二环内
01894d6f048493d2cacde3c579c315a3,1,槐安路体育大街西由东向西1-5,114.53257255720253,38.02236671176833,二环内
04048aeca2c0f5d84639358008ed2ae7,1,槐安路雅清街西由东向西1-3,114.56648151119201,38.02299380819219,二环内
b0b79da57b95837f14be95aaa4d54cf8,2,东风路青园街东由西向东1,114.51865979700152,38.02434837598787,二环内
2952351097998ac1240cb2ab7333a3d2,2,裕华路建华大街东由西向东1-4,114.54638039459746,38.036184309526114,二环内
487d4c6a324446b3fa45b30cfcee5337,1,塔南路翟营大街东由东向西1-2,114.55721635863168,38.00645399696182,二环内
b6e32320fa6bc5a588b90183b95dc028,2,塔南路翟营大街东由西向东1-2,114.5569724306858,38.006334052203854,二环内
90aef91f0d9e7c3be322bd7bae41617d,1,槐中路富强大街东由东向西1,114.52368711366846,38.028534872705656,二环内
df1f1d20ee86704251795841e6a9405a,2,槐中路育才街西由西向东1,114.52785043852371,38.02859337062192,二环内
38651c4450f87348fcbe1f992746a954,1,槐中路谈固大街西由东向西1,114.56226384064092,38.02923782731326,二环内
f6c79f4af478638c39b206ec30ab166b,2,槐中路谈固大街西由西向东1,114.56170701270362,38.0292039593341,二环内
d6288499d0083cc34e60a077b7c4b3e1,1,东岗路翟营大街东由东向西1-2,114.55622765514028,38.016072221807626,二环内
4cb811134b9d39fc3104bd06ce75abad,2,东岗路翟营大街东由西向东1-2,114.55623465307812,38.016053220232926,二环内
ccbd8ca962b80445df1f7f38c57759f0,3,塔南路体育大街北由南向北1-2,114.53406924413052,38.0062514807592,二环内
dc16622ddc767e6bc1200fe5df2fbdfb,2,南二环建设大街东由西向东1-2,114.51728694041992,38.00109648705375,二环内
c3614206a443012045cfd75d2600af2d,4,中山路友谊大街南由北向南1-2,114.45194532133537,38.03987050394231,二环内
1177967c7957072da3dc1db4ceb30e7a,4,裕华路休门街南由北向南1,114.50648084938686,38.03515810883753,二环内
d827f12e35eae370ba9c65b7f6026695,3,新石中路中华大街北由南向北1-4,114.47752556544283,38.01339387011901,二环内
6211080fa89981f66b1a0c9d55c61d0f,4,新石中路中华大街北由北向南1-4,114.47738054594758,38.01350585348062,二环内
f516dfb84b9051ed85b89cdc3a8ab7f5,3,谊北路友谊大街北由南向北1-2,114.45174527053214,38.0451164600492,二环内
69dafe8b58066478aea48f3d0f384820,1,裕华路中华大街西由东向西1-4,114.47757158867438,38.035295880286206,二环内
f3ac63c91272f19ce97c7397825cc15f,4,谊北路友谊大街南由北向南1-2,114.45173926850745,38.04443845867333,二环内
88bfcf02e7f554f9e9ea350b699bc6a7,3,谊北路友谊大街南由南向北1-2,114.45182729226458,38.04444147817681,二环内
d095a94d20dcaf7aa07301948549bede,3,平安大街佳农市场北由南向北1-3,114.50250097726543,38.01800418549706,二环内
466accbac9a66b805ba50e42ad715740,3,汇通路平安大街东由南向北1-2,114.50745478345229,38.015979072017295,二环内
ca43108ded5aabc7793d3f9b928cdd54,4,汇通路平安大街东由北向南1-2,114.50736078856268,38.01601507530745,二环内
6ee69d3769e832ec77c9584e0b7ba112,1,裕华路师范街西由东向西1-4,114.46648773840161,38.035149326869224,二环内
b090409688550f3cc93f4ed88ec6cafb,1,裕华路红旗大街西由东向西1-3,114.45949022172408,38.03506007031883,二环内
959ef477884b6ac2241b19ee4fb776ae,2,槐安路大经街西由西向东1-5,114.49552698706825,38.02231913616085,二环内
7e05d6f828574fbc975a896b25bb011e,3,槐中路平安大街北由南向北1-3,114.50218699285216,38.02834019123907,二环内
7cc234202e98d2722580858573fd0817,3,东风路平安大街北由南向北1-3,114.50226198854946,38.02511018974158,二环内
347665597cbfaef834886adbb848011f,1,南二环汇宁街东由东向西1-5,114.4636131249967,38.004574829164994,二环内
01a0683665f38d8e5e567b3b15ca98bf,2,南二环汇宁街东由西向东1-5,114.46755792535326,38.00440949460177,二环内
12ffb0968f2f56e51a59a6beb37b2859,4,槐中路平安大街南由北向南1-3,114.50203399578665,38.02807019245932,二环内
cd10c7f376188a4a2ca3e8fea2c03aeb,4,建胜路平安大街南由北向南1-3,114.50233398255865,38.019822187661696,二环内
3f998e713a6e02287c374fd26835d87e,4,东平路平安大街北由北向南1-3,114.50239097966558,38.01787718657403,二环内
84b20b1f5a0d103f5710bb67a043cd78,1,裕华路中华大街东由东向西1-4,114.47933881689943,38.03548207502635,二环内
0747b9be4f90056c30eb5241f06bfe9b,3,工农路中华大街由南向北车尾1-4,114.4774555702951,38.03176986628436,二环内
e92d74ccacdc984afa0c517ad0d557a6,2,裕华路平安大街东由西向东1-4,114.50334797027487,38.03581717943211,二环内
9d28de8ff9bb6a3fa41fddfdc28f3bc1,4,中山路平安大街南由北向南1-4,114.5015380171186,38.04255419919172,二环内
92a0e7a415d64ebafcb16a8ca817cde4,3,中山路平安大街南由南向北1-3,114.50168201498404,38.04301019844137,二环内
8c59fd6fbe0e9793ec2b27971221cace,3,塔南路金利街北由南向北1,114.50044300778835,38.01367419497787,二环内
59eb5dd36914c29b299c84b7ddaf08ec,2,槐北路建设大街西由西向东1,114.51066758979968,38.03171793786236,二环内
dda04f9d634145a9c68d5dfe53b21272,2,槐中路休门街西由西向东1,114.5062608540268,38.0281641136825,二环内
fecf2c550171d3195c879d115440ae45,4,东风路休门街北由北向南1,114.50697381648662,38.02513709082275,二环内
92426b262d11b0ade77387cf8416e153,2,槐中路胜利大街东由西向东1,114.49025379009626,38.02848593567781,二环内
36e729ec173b94133d8fa552e4029f8b,1,槐中路胜利大街东由东向西1,114.49215788360847,38.02848402490348,二环内
c57168a952f5d46724cf35dfc3d48a7f,2,槐中路建设大街西由西向东1,114.51180749830723,38.02828087581833,二环内
453fadbd8a1a3af50a9df4df899537b5,2,槐安路平安大街东路北由西向东1-5,114.5021329888094,38.022147190105706,二环内
908a6f6a6c131a850ecb0e3f11b08189,4,合作路友谊大街北由北向南1-2,114.45300961447649,38.05486573821878,二环内
daaaf13651380465fc284db6940d8478,3,合作路友谊大街北由南向北1-2,114.45304762557852,38.05658174655099,二环内
7f7c351ee977c765aa8cd5c7020bc38f,4,新华路中华大街北由北向南1-5,114.47723855378824,38.04843984418919,二环内
1d49780520898fe37f0cd6b41c5311bf,3,新华路中华大街北由南向北1-5,114.47743358128892,38.04971786692724,二环内
7f141cf8e7136ce8701dc6636c2a6fe4,3,联盟路友谊大街南由南向北1-2,114.45439199125877,38.07910003585938,二环内
2b6921f2c64dee16ba21ebf17f3c2c92,4,联盟路友谊大街南由北向南1-2,114.45430296709625,38.07732201693809,二环内
045cf83ab0722e782cf72d14e44adf98,4,北城路友谊大街南由北向南1-2,114.45428195730128,38.070296012511704,二环内
d8e1344e27a5b08cdfd5d027d9b8d6de,3,北城路友谊大街南由南向北1-2,114.45438398517497,38.072627034237996,二环内
1cd138d0499a68f4bb72bee04bbec2d7,3,联盟路中华大街北由南向北车尾1-3,114.4785497518643,38.07943399584531,二环内
64c31821603ab476a318839606743bd6,4,华西路中华大街南由北向南1-5,114.47722955021918,38.04542984266612,二环内
564645fbd0332f066cbd9d083ddd077c,1,北二环农机街西由东向西1-5,114.49647905483116,38.08255616874726,二环内
765d5fb115a9f6a3e0b23b80a5b2e4c4,3,华西路中华大街北由南向北1-5,114.47746058191139,38.04582686942232,二环内
d0010a6f34908640a4a6da2389772a78,2,北二环农机街西由西向东1-5,114.49791106968694,38.08185019233182,二环内
b4fd1d2cb085390fbbadae65e07876a7,1,北二环泰华街西由东向西车尾1-4,114.46297404369682,38.08610772458139,二环内
663772ea088360f95bac3dc7ffb841be,2,北二环泰华街东由西向东车尾1-3,114.46457838540755,38.085745007978986,二环内
227f6afd3b7f89b96c4bb91f95d50f6d,1,北二环誉兴街西由东向西1-5,114.47150970211028,38.085716105312784,二环内
12311d05c9aa67765703984239511212,2,北二环友谊大街东由西向东车尾1-4,114.45526521977615,38.08578322012895,二环内
2217ad1dd50c1017d3df6b44b7c45508,2,和平路北新街东由西向东1-2,114.48793866729461,38.055443807857465,二环内
d3d80b656929a5bc0fa34381bf42fbdd,1,和平路北新街东由东向西1-2,114.48809967871874,38.05572981804794,二环内
d3aeec875c479e55d1cdeea161842ec6,2,北二环北新街西由西向东1-5,114.48638257338179,38.08332370654292,二环内
1a6727711b84fd1efbb87fc565199d13,1,北二环北新街西由东向西1-6,114.48645757977481,38.08383071191989,二环内
ef67f7c2d86352c2c42e19d20f881f53,2,和平路建设大街立交桥东由西向东1-4,114.51162753415174,38.05412389155917,二环内
b31df16a88ce00fed951f24b46e08649,1,和平路建设大街立交桥东由东向西1-4,114.51636408592351,38.05376657431834,二环内
c9efe5f26cd17ba6216bbe2a7d26d490,3,裕华路建设大街北行100米,114.51198749137976,38.03774586783688,二环内
15c00b5250ddedaabc203b67f8b034fd,3,正东路建设大街南侧,114.51193450289821,38.04643387275022,二环内
02180771a9b609a26dcea07f272e141f,2,光华路建设大街,114.5146582668346,38.058690701776825,二环内
1b79b52d1bf6f71b2b1eb7ca08ed0776,3,和平路体育大街北100米,114.53228064161031,38.0588217620709,二环内
e2f9247929b404b2fe98ba6f32301e3b,1,裕华路广播电视台由东向西1-6,114.51642306488678,38.035780565959264,二环内
dc20d1211f3e7a99d775b26052e0163e,4,和平路体育大街北100米,114.5321326701674,38.058210783784084,二环内
a11ce019e96a4c60832eadd755a17a58,1,裕华路西大街交口东侧由东向西1-5,114.52116448203587,38.03584814171945,二环内
24b43fb034a10d78bec71274033b4096,1,和平路翟营大街西200米由东向西1-4,114.5513220781118,38.054334298905275,二环内
bd85282513da4089c441926e1975898c,4,东二环学苑路北北向南,114.57769982697073,38.01633897666779,二环内
a41b3bb3e6b050b6c9067c67f663b915,4,东二环裕华路南北向南,114.57690609856348,38.03361518217014,二环内
9bd5ee6fe55aaeb673025dbcb8f939c1,1,南二环红旗大街东向西,114.46345009013662,38.00457980025311,二环内
e2eacaff46787bfeefcaa24cf35264c7,3,西二环建国路南向北,114.43771710813387,38.029016059931116,二环内
52edc4a5890adc59cec82cb60f8af691,3,西二环联盟路南向北,114.43711593909215,38.07998290135011,二环内
040a99f23e8960763e680041c601acab,2,裕华路建华大街西向东,114.54585752964259,38.036173412428894,二环内
85ae750ad1dbdc5c2703bcfe97e77152,1,南二环谈固东街西东向西,114.57068414582044,38.002903762958184,二环内
c12706a7c6e8d6476c3d2b6ae0042a82,2,南二环谈固东街西西向东,114.57073512913696,38.00280175014724,二环内
0b6ace9e8971cf36f1782aa982a708db,3,中华大街工农路终端,114.47743956813237,38.03176986444405,二环内
0b6ace9e8971cf36f1782aa982a708db,4,中华大街工农路终端,114.47728854739572,38.03144884695104,二环内
0cd6a652ed1f7811192db1f700c8f0e7,3,中华大街化纤路南向北,114.47824971612832,38.083457962946824,二环内
97108695bd93b6be52fa0334874c8722,4,中华大街化纤路北向南,114.47821170900549,38.08070295852731,二环内
82b0639a82d0cc70b8f5830fd2b06868,3,友谊大街农科路南向北,114.45306363112851,38.05874675010321,二环内
75df63609809c7a2052fdffe5c00a84e,4,友谊大街农科路北向南,114.45297260602331,38.057084730253955,二环内
39cd7b469beae7c617c73e0d008195ef,1,和平路车辆厂街东向西,114.48961277545615,38.05529390692107,二环内
664dd858db942cad06f24ff25df56716,2,北二环谈固大街桥上西向东,114.5648310572798,38.07114521379684,二环内
8a1ee9f2b7abe6e88d1a479ab6a42c5e,2,北二环建华大街桥上西向东,114.54610849003342,38.07538936802056,二环内
0084ae4bc24c0795d1e6a4f58444d39b,4,体育大街槐中路北向南,114.5332324285475,38.02626261363928,二环内
6c349155b122aa8ad5c877007e05f24f,3,育才街槐中路南向北,114.52847232946895,38.0283282892196,二环内
14e422f05b68cc0139988e128ee880df,1,北二环体育大街桥上东向西,114.53134983654628,38.07800590040871,二环内
a9b4ec2eb4ab7b1b9c3392bb5388119d,2,北二环体育大街桥上西向东,114.53126385252808,38.07734291269681,二环内
7e8d7e5ccbddfd9576be61e3ab86aa73,1,槐安路辅路西二环西东向西,114.43692785387216,38.02461285378002,二环外三环内
9edda0fd4d983bf975935cfd492fd50b,1,槐安路东二环东向西,114.58172647301689,38.0232459333871,二环内
8487e01fbaf43e758c17f86472cbf3e6,2,建华大街东岗路东,114.54961652315554,38.01590665070216,二环内
8487e01fbaf43e758c17f86472cbf3e6,1,建华大街东岗路东,114.54962452102642,38.01597364905797,二环内
fdaa09fc5ed18d3226b3a1a00f1bc48c,4,北城路与友谊大街,114.45425495042689,38.07050500675506,二环内
d5a28f81834b6df2b6db6d3e5e2635c7,4,四中路与平安大街D,114.50164501209517,38.03876819774253,二环内
e68879a4839773d105f0689875dace83,3,北二环与友谊大街,114.45438499347246,38.085595034167824,二环内
73f715c6cc2b110fc67503ba813f7f0e,3,西二环主路广源路出口,114.43551941418269,38.05788648308241,二环内
d2a452edff079ca6980edcf54cc49945,1,西二环与槐安路D,114.43751304101501,38.02451500657146,二环内
ac53fab47b547a0d47b77e424cf119ba,3,新石中路与中华大街,114.4774965612831,38.01306786671033,二环内
d25a34b9c2a87db380ecd7f7115882ec,4,新石中路与中华大街D,114.47738454639547,38.01338485391093,二环内
2f4ccb0f7a84f335affb418aee08a6df,1,和平路主路中华大街出口,114.48394733821912,38.056388515011676,二环内
cb41f167917ec4b8d870a90c54afef7d,3,汇华路与塔谈大街D,114.49041178171552,38.00781393825726,二环内
72bcba983cd3b0bf1d4251311d8b3772,3,汇华路与塔谈大街,114.49075380055766,38.00866195560358,二环内
754c32eb39c6dfd8b7c97531a459937c,2,裕华路与大经街D,114.49622701193461,38.036043155718644,二环内
8c96a3d5e1a41ee7925daa5a4dc0c25a,3,建胜路与平安大街,114.50242898080478,38.02026718685311,二环内
0c4b1eeb45c90b52bfb9d07943d855ab,1,裕华路与站前街D,114.48661055251698,38.03555471550873,二环内
4d386d01419c083e8df5de53eb5a0254,1,裕华路与中华大街,114.47448814573205,38.03537150491551,二环内
4d386d01419c083e8df5de53eb5a0254,2,裕华路与中华大街,114.47760559328313,38.03534888418443,二环内
4d386d01419c083e8df5de53eb5a0254,4,裕华路与中华大街,114.47736656078888,38.03504085667742,二环内
63a8f9e307f0bf4473c24dd4db17cebd,1,裕华路与友谊大街,114.45243344926112,38.034972610969625,二环内
99607461cdb9c26e2bd5f31b12dcf27a,4,平安大街元北路口,114.50213799124961,38.02519219086273,二环内
810462d01f318bd13e628a77fc3f92c0,1,槐安路辅路时光街入口D,114.43334769017704,38.02447490443773,二环外三环内
5e7d00134ba3a8b3e37edf5038bc51fc,3,中华大街新石北路口中间人行横道,114.47749056468139,38.01847886736502,二环内
5e7d00134ba3a8b3e37edf5038bc51fc,4,中华大街新石北路口中间人行横道,114.47731554115362,38.018688847256,二环内
0fe6a94848e5c68a54010b61b3e94b0e,3,中华南大街保龙仓超市出门前人行横道,114.47750357365749,38.027764870964916,二环内
5a66b9200f29ac3fa0ae244cc2a51b39,1,槐安路与时光街D,114.42872314698708,38.024468646596034,二环外三环内
024677efb8e4aee2eaeef17b54695bbe,2,槐北路与建设大街,114.5116545135191,38.031739885248875,二环内
3ce257b311e5acf849992f5a675188e8,3,槐北路与平安大街,114.50188100466478,38.03508819532921,二环内
164bf317ea19ccfd9e97853edc2389f4,1,槐中路与平安大街,114.50173600166562,38.02825119467474,二环内
c19af480c40e343bbac3e2c01967b09f,4,槐中路与平安大街D,114.50199399676966,38.028287192831066,二环内
c19af480c40e343bbac3e2c01967b09f,3,槐中路与平安大街D,114.50212799413438,38.02839519176349,二环内
46936add066bd6422b3ac74a0ccb7174,4,南二环与体育大街D,114.53418721690107,38.00208746137444,二环内
bff624c3a469dce7c45ce151902222ba,2,光华路与建华大街,114.54486679753913,38.059214608386824,二环内
bff624c3a469dce7c45ce151902222ba,2,光华路与建华大街,114.54486679753913,38.059214608386824,二环内
9ec51f6eb240fb631a35864e13737bca,2,塔南路与建通街,114.50515888465549,38.0075071370944,二环内
81cacbb44ce8bf874ef92e1a73432c7f,1,和平路与建华大街D,114.54530268343127,38.05421952336304,二环内
d384dec9f5f7a64a36b5c8f03b8a6d92,1,塔南路与建通街D,114.5055138699807,38.00738612832507,二环内
d384dec9f5f7a64a36b5c8f03b8a6d92,2,塔南路与建通街D,114.50447691081199,38.00796915224548,二环内
bbc12a3a98d8487f58a87d3a3070516e,2,塔南路与体育大街D,114.53308744271169,38.005898630537686,二环内
ca7be8306ecc3f5fa30ff2c41e64fa7b,4,柏林南路与中华大街D,114.47842072953591,38.07219598102121,二环内
294a8ed24b1ad22ec2e7efea049b8737,1,东岗路与体育大街,114.5353349875817,38.01560928440212,二环内
634841a6831464b64c072c8510c7f35c,2,东岗路与体育大街D,114.52899222720268,38.01550721687624,二环内
634841a6831464b64c072c8510c7f35c,2,东岗路与体育大街D,114.53243357962324,38.015579730768586,二环内
77431ca7981f1f1483ae8a58bcbb6e0e,4,东岗路与体育大街D1,114.53360234637545,38.01598355498788,二环内
967edfdcdfbcc3b2d253fac24326e5b5,2,槐中路与建华大街,114.54682927321359,38.028930219283055,二环内
077b83af57538aa183971a2fe0971ec1,1,北二环与泰华街,114.46301205195407,38.08610773141853,二环内
9873eaad153c6c960616c89e54fe155a,3,联盟路与友谊大街,114.45436798538111,38.07964503073795,二环内
4c7a167bb329bd92580a99ce422d6fa6,4,联盟路与中华大街,114.47813969796084,38.07864195033556,二环内
f93486bfff38ca69d76d85c089569a09,4,槐岭路与体育大街D,114.53326642097609,38.02525460826684,二环内
6fd9a99a5abed788d9afc9d52d54e91b,3,西二环主路槐安路出口D,114.43765308319202,38.01906604265025,二环内
7cdace91c487558e27ce54df7cdb299c,2,塔南路与裕翔街D,114.52869227344755,38.005862254362135,二环内
7cdace91c487558e27ce54df7cdb299c,1,塔南路与裕翔街D,114.52990605396568,38.00594208994499,二环内
a7471fdc77b3435276507cc8f2dc2569,1,和平路与长征街,114.5021140163738,38.05464019758405,二环内
fdc0eb412a84fa549afe68373d9087e9,2,塔南路与富强大街D,114.52407203743238,38.005778823453895,二环内
fdc0eb412a84fa549afe68373d9087e9,1,塔南路与富强大街D,114.52437699060033,38.00581178873315,二环内
c344336196d5ec19bd54fd14befdde87,2,东岗路与建华大街D1,114.54598248447,38.015859384145735,二环内
c344336196d5ec19bd54fd14befdde87,1,东岗路与建华大街D1,114.547718031591,38.01589803880326,二环内
6d378765f17a856b7ba8bf1541cafb69,2,塔南路与建华大街D1,114.54557858192659,38.00610946104794,二环内
c1cdd433a18e3949d6e64b68564a7c0d,2,塔南路与建华大街,114.5456485640104,38.00611444739371,二环内
c1cdd433a18e3949d6e64b68564a7c0d,1,塔南路与建华大街,114.54836185468936,38.00625290636185,二环内
0a54b19a13b6712dc04d1b49215423d8,1,东岗路与富强大街D,114.52315218324675,38.015447928445376,二环内
0a54b19a13b6712dc04d1b49215423d8,2,东岗路与富强大街D,114.52224631475478,38.01540302551904,二环内
3d9dabe52805a1ea21864b09f3397593,1,东岗路与富强大街,114.52274924232137,38.01544097207882,二环内
8973ba741e7bd6450d8023552f43728e,1,和平路主路平安大街出口,114.50553090854376,38.05449013944309,二环内
f4661398cb1a3abd3ffe58600bf11322,4,富强大街青园小区D,114.5234081475351,38.018365901124795,二环内
148148d62be67e0916a833931bd32b26,4,富强大街与槐岭路D,114.52322917791729,38.02316692202581,二环内
79385312dbee4c9e7270b26e4b3e1459,2,槐中路与体育大街,114.53346138418672,38.02869457941647,二环内
79385312dbee4c9e7270b26e4b3e1459,1,槐中路与体育大街,114.53383330870717,38.02872752252669,二环内
c5f441cd5f43eb2f2c024e1f8b5d00cd,4,槐中路与体育大街D1,114.53312245245104,38.02876463081123,二环内
78e092e6f3d8a7b10a82c6abd756d748,3,利射北路与胜利南街D1,114.49080680708792,38.01325595952078,二环内
b59442085644532ef03417a3e5a76437,1,裕华路与体育大街,114.5324016010402,38.036091740130566,二环内
979a3f14bae523dc5101c52120c535e9,2,槐中路与富强大街,114.52107648816168,38.0284601488145,二环内
05f17e3cfa5de42020eaa6df34fb4805,4,槐北路与富强大街D,114.52297522250232,38.0322219518732,二环内
3b199f42a9909061516b6ce6d334af6d,2,槐北路与富强大街,114.52262627317482,38.031937989373354,二环内
a5d42e4024cc540befb48f466820e25f,4,富强大街槐北路北行200米省三幼门口南D,114.52292123139196,38.03345395800183,二环内
234dd9e577ac5892481bc60663ffa405,2,裕华路与育才街,114.52994106999925,38.03585609236263,二环内
234dd9e577ac5892481bc60663ffa405,3,裕华路与育才街,114.52823137735247,38.035507322513425,二环内
60131a2a3f223dc8f4753bcc5771660c,3,谈南路与体育大街D,114.53266955662718,38.04766770249672,二环内
15a50c8ba6a0002a2fa7e5d8c0a40bd9,2,裕华路与育才街D,114.52767347464442,38.03581439507005,二环内
e0b60d939b4a80628dfd66b1e0bb65fa,1,槐中路与育才街,114.52832735525136,38.0286233083939,二环内
e0b60d939b4a80628dfd66b1e0bb65fa,2,槐中路与育才街,114.52876827716004,38.028602250005434,二环内
e0b60d939b4a80628dfd66b1e0bb65fa,3,槐中路与育才街,114.52843533610529,38.02846529413478,二环内
e0b60d939b4a80628dfd66b1e0bb65fa,4,槐中路与育才街,114.5283193591801,38.03193831018912,二环内
e148bbf8d64abf4aac7ea4a3c5560aee,3,跃进路与体育大街D,114.5325995715321,38.04907871317596,二环内
a67c8c9a961b4182688768dd9ba015fe,2,裕华路与青园街D,114.51706699328871,38.035607514410486,二环内
a67c8c9a961b4182688768dd9ba015fe,3,裕华路与青园街D,114.51758393390212,38.03529647158551,二环内
0a4bbceda17a6253386bc9eb45240e25,4,胜利大街运河桥西门口,114.51388835734078,38.078644757456146,二环内
8fdd149fcaa7058caccc9c4ad5b0d89a,3,槐北路与青园街,114.5177089163652,38.03157746019456,二环内
8fdd149fcaa7058caccc9c4ad5b0d89a,4,槐北路与青园街,114.5176349258782,38.0326904666962,二环内
8fdd149fcaa7058caccc9c4ad5b0d89a,2,槐北路与青园街,114.5209555073266,38.03190616168694,二环内
8fdd149fcaa7058caccc9c4ad5b0d89a,1,槐北路与青园街,114.52171440292685,38.03191808497092,二环内
010e406df2463597c58286a93f8b3160,1,和平路与体育大街,114.52884028357497,38.0539992454446,二环内
094366eaa7a4b5d7f9ed227f212b3649,4,槐北路与青园街D,114.51764292494525,38.03268646602203,二环内
baeabb8ff01160eec0b5db7da2805f57,2,和平路与体育大街D,114.5319826961369,38.05372980507761,二环内
baeabb8ff01160eec0b5db7da2805f57,1,和平路与体育大街D,114.53293750803736,38.05409266346879,二环内
680390c55bbd9ce416d1d69a9ab4760d,4,和平路与体育大街D1,114.53222364969322,38.0546247698146,二环内
94cb02feb750f20bad8a85dfe7e18d11,3,和平路体育大街高架上桥口,114.53241461403138,38.05716974199401,二环内
95c8f422f9c3308d391cbcefae21d5ad,3,槐中路与青园街,114.51776790720587,38.02876745452557,二环内
95c8f422f9c3308d391cbcefae21d5ad,1,槐中路与青园街,114.51821985345981,38.02841541565908,二环内
95c8f422f9c3308d391cbcefae21d5ad,2,槐中路与青园街,114.5179278881064,38.02838144081193,二环内
8682cc30db9c025ecd3fee433f8ab54c,2,光华路与体育大街,114.5330794832475,38.05900664286869,二环内
d8a3a3c3234392b0add43c5f9c05a246,3,东风路与青园街,114.51794788231004,38.02411943803579,二环内
d8a3a3c3234392b0add43c5f9c05a246,1,东风路与青园街,114.5170879818042,38.024350509973935,二环内
32cfdce9631d8c7906e8e9d6e68b514b,4,槐安路与青园街D1,114.51797887737385,38.022537434974126,二环内
32cfdce9631d8c7906e8e9d6e68b514b,3,槐安路与青园街D1,114.51802187152295,38.021589431037405,二环内
6d7d394c9d0c886e9247542e06ebb705,1,东岗路与青园街,114.51916072788184,38.01537732851799,二环内
6d7d394c9d0c886e9247542e06ebb705,2,东岗路与青园街,114.51756591984916,38.01531746804591,二环内
c23497bd62a8f8a0981fdc9cbd3c30d9,2,东岗路与谈固大街D1,114.56246377227814,38.016144778090165,二环内
c23497bd62a8f8a0981fdc9cbd3c30d9,1,东岗路与谈固大街D1,114.56372537923865,38.016204476378704,二环内
7f2cba89a7116c7c6b0a769572d5fad9,2,裕华路与东大街D,114.52479594869152,38.035750747933726,二环内
fccc64972a9468a11f125cadb090e89e,2,东岗路与谈固大街,114.56246377227814,38.016144778090165,二环内
fccc64972a9468a11f125cadb090e89e,1,东岗路与谈固大街,114.56247376921439,38.01621877572152,二环内
fd45c64e026040dbcb83395829d2aea5,2,裕华路与东大街,114.52767547429565,38.035809394811494,二环内
dfbfa7ddcfffeb581f50edcf9a0204bb,1,东岗路与青园街D,114.51969466029689,38.01538027918218,二环内
dfbfa7ddcfffeb581f50edcf9a0204bb,4,东岗路与青园街D,114.51817184978488,38.016735416802575,二环内
3cba81c5c6cac4ce77157631fc2dc277,3,和平路与谈固大街,114.56184298294441,38.05383692945316,二环内
3cba81c5c6cac4ce77157631fc2dc277,1,和平路与谈固大街,114.56151808353206,38.05453300637608,二环内
675f9820626f5bc0afb47b57890b466e,3,和平路与谈固大街D,114.56184298294441,38.05383692945316,二环内
675f9820626f5bc0afb47b57890b466e,1,和平路与谈固大街D,114.56151808353206,38.05453300637608,二环内
675f9820626f5bc0afb47b57890b466e,2,和平路与谈固大街D,114.56113919999733,38.0543340957447,二环内
32e0bd1497aa43e02a42f47d9d6515ad,1,槐安路与谈固大街,114.56254175141373,38.022960760438814,二环内
fcd4c889d516a54d5371f00e3fdd70dc,2,塔南路与青园街,114.51875477037167,38.005672362367825,二环内
fcd4c889d516a54d5371f00e3fdd70dc,1,塔南路与青园街,114.51809085055613,38.00571942065052,二环内
ea1818cbe59c23b20f1a10a8aa083a82,2,塔南路与青园街D,114.51806685332599,38.00562142268907,二环内
ea1818cbe59c23b20f1a10a8aa083a82,1,塔南路与青园街D,114.51879776511628,38.00570135853293,二环内
37d7902cb2d3de686e497e31624d82e0,2,槐中路与谈固大街,114.56179598526019,38.029205938279475,二环内
37d7902cb2d3de686e497e31624d82e0,1,槐中路与谈固大街,114.56226484033326,38.02924182707615,二环内
3ba9af181751761d3b387f74ded2d783,1,塔南路与建设大街D,114.51345933720981,38.00563276970972,二环内
2c60e40b399dc55d8b755ec6b5d09f8a,4,塔南路与建设大街D1,114.51270940437914,38.00617481681544,二环内
2c60e40b399dc55d8b755ec6b5d09f8a,2,塔南路与建设大街D1,114.51194146863722,38.005529861879765,二环内
78421a2e0e1168e5cd1b7a8d23773ce6,4,石栾路与建设大街D,114.51269140691056,38.00735881826763,二环内
78421a2e0e1168e5cd1b7a8d23773ce6,1,石栾路与建设大街D,114.51323435854516,38.00680478443156,二环内
6b39183e7053a0106e4376f4e9c5c74d,3,建强路与建设大街D,114.51249643414184,38.02009083365105,二环内
ee1abc6b5f7c6acb34ad076b05d40815,2,和平路与谈固东街D,114.57035027572553,38.05460485085384,二环内
177db6acfe388526a4c7bff88e1feb15,1,和平路与谈固东街,114.57035227512175,38.05472485035615,二环内
5b8e9841e87fb8fc590434f5d933c92c,3,东岗路与建设大街,114.51261441974344,38.014887825127104,二环内
5b8e9841e87fb8fc590434f5d933c92c,1,东岗路与建设大街,114.51252343046441,38.01842583158269,二环内
18b91b19f6a289e7708da7f778b2c609,1,东岗路与建设大街D,114.51324436460175,38.015289786274586,二环内
fb5c2bc1aa847f387022607d16adc510,2,塔南路与谈固东街D,114.57034125913628,38.00658584941346,二环内
fb5c2bc1aa847f387022607d16adc510,1,塔南路与谈固东街D,114.57199071953089,38.00672343443385,二环内
024d2d699e6c1a82c9ba986386f4d824,3,槐安路与建设大街,114.5124374402892,38.02144983753367,二环内
b5ecbbf5782cc7fe9e453f3a2f26f24b,2,塔南路与谈固东街,114.570306270534,38.00657785817856,二环内
58182b82110146887c02dbd78719e3d5,1,东岗路与谈固东街,114.56705932361082,38.01638866558403,二环内
add5efc3f8de35d6208dc6fc154b59d3,2,槐中路谈固东街西行200米国际城小学门口D,114.56852585763433,38.029330304577044,二环内
add5efc3f8de35d6208dc6fc154b59d3,1,槐中路谈固东街西行200米国际城小学门口D,114.56857984021039,38.02936529118007,二环内
c4bca428211c2b48b81fd3b12afd2aa1,4,园明路与建设大街D,114.51165452735108,38.0485098889631,二环内
e7dfca01f394755c11f853602cb2608a,1,裕华路与谈固东街,114.56985343033784,38.03675997440195,二环内
56880339cfb8fe04c2d17c6160d0512f,3,槐安路与中华大街,114.47757858162655,38.02503487896236,二环内
c1d53b7a97707b5cd1815c8d228d8ef1,1,槐安路辅路与桥头街,114.49164285739592,38.024605001627094,二环内
29586cb449c90e249f1f09a0a4ee245a,3,槐安路与平安大街D,114.50236498364069,38.021940187935044,二环内
721e049e9903c3a740c4902878c99923,1,槐安路与大经街D,114.49555598779598,38.022450136915865,二环内
c77cfd5563c8ec4bfcde94c09098ba84,1,和平路与北新街D,114.4858115046643,38.05622766174426,二环内
84e2d85ac232c681a641da1ec663888c,2,和平路与北荣街D,114.48541747105193,38.05594863212408,二环内
392526094bcba21af9fd4102ce5ed092,3,工农路与中华大街D,114.47747157200425,38.031188868005465,二环内
392526094bcba21af9fd4102ce5ed092,4,工农路与中华大街D,114.47729154781263,38.03145984730058,二环内
de9621d4c6fa69ce8aaa90f00e9110c5,1,平安大街与金利街,114.5029399644635,38.01556717976788,二环内
0e1bacf07b14673fcdb553da51b999a5,1,军械学院门口路北,114.48584050707235,38.056214663888554,二环内
af5baf594e9197b43c9f26f17b205e5b,2,南二环主路红旗大街出口,114.4555732469398,38.004497277700125,二环内
5446f217e9504bc593ad9dcf2ec88dda,4,西二环辅路广源路入口D,114.434765166538,38.05274628318486,二环内
90cc440b1b8caa520c562ac4e4bbcb51,2,裕华路与师范街D,114.46616667436379,38.035022273657646,二环内
bcb7c13ff9746a60fa8c3e748acd054d,4,新石北路与中华大街D,114.47735654675874,38.01873785200392,二环内
bcb7c13ff9746a60fa8c3e748acd054d,3,新石北路与中华大街D,114.47749856197481,38.013610867078434,二环内
99503bdd3c5a4c4671ada72d6fd81433,3,友谊大街第19中学门前人行横道,114.45189130884052,38.043302492264786,二环内
091bc5440296cc0e41dd60ce22fbaf88,4,友谊大街联盟小区门口,114.45430496760804,38.07731101736455,二环内
146389f11f0e76cbc28ca267a34353a7,3,和平路与建华大街D1,114.54570458032883,38.05388944497425,二环内
146389f11f0e76cbc28ca267a34353a7,2,和平路与建华大街D1,114.54510073477806,38.05404756251595,二环内
5d8c6ee0d8964e66a3225458f981522d,2,光华路与翟营大街,114.55301260658237,38.05906293692099,二环内
5d8c6ee0d8964e66a3225458f981522d,1,光华路与翟营大街,114.55422626021716,38.05911167205035,二环内
89d3d7800304002cd469f0c402bd3ea0,2,和平路与翟营大街D1,114.555228967751,38.05424644994862,二环内
d8ad9beba48de682e6accacba8cdbe2d,2,和平路与翟营大街,114.55333851123383,38.0542028656927,二环内
42d02bd0c73cb27e4ffc7862910ea1f4,1,裕华路与翟营大街,114.55468511524437,38.03646756843631,二环内
141661fa46b11782745bb974d5140004,2,塔南路翟营大街东侧卓达学校门口D,114.55635761167515,38.00631919087646,二环内
141661fa46b11782745bb974d5140004,1,塔南路翟营大街东侧卓达学校门口D,114.55655355418561,38.006452146802125,二环内
90e69a6d2ad189b222ac1998abe63aea,1,塔南路与翟营大街,114.55581377090556,38.00644631281866,二环内
958ad0d05d3259750be0b041d10adbb1,3,裕华路与平安大街D,114.50188600482876,38.03539919536527,二环内
e3bc4e7f243ebc05d66a0568a3331966,2,裕华路与平安大街D1,114.50217599936137,38.035849193145495,二环内
eb21cc0143d96dbc8e3a58f1a81e4dd2,2,塔南路与翟营大街D,114.55400629324518,38.00628971278932,二环内
72fe6f9fdab5f4d465ac6da028e4544c,1,槐中路与翟营大街,114.55483906663045,38.02910053337857,二环内
72fe6f9fdab5f4d465ac6da028e4544c,2,槐中路与翟营大街,114.55473309722402,38.02906855680332,二环内
db5f9f42a7157abe65bb145000b5871a,4,槐北路与体育大街D,114.5330114758755,38.030417647893074,二环内
5fde40544cff0001484ecae2466ce96e,2,槐北路与体育大街,114.53298348272094,38.03212365246604,二环内
3c69ccff8acc065aa5618b36b74703de,2,槐安路与谈固西街,114.55838501918826,38.0224677328958,二环内
5a570102ff1655264e06f782078b5af0,1,槐中路与谈固西街,114.55869992825585,38.02917166141733,二环内
7792a0500b5aabb4b072d113a160d200,2,槐中路与谈固西街H,114.5581161031682,38.02913279548002,二环内
495360cbf18a7d5004ff72f49254e069,4,东岗路与育才街,114.52888424659935,38.015590231367895,二环内
df3aebc649f9e3b674eeb790a4da224e,2,东岗路与育才街D,114.52837633666199,38.015513298762265,二环内
df3aebc649f9e3b674eeb790a4da224e,1,东岗路与育才街D,114.52930617068262,38.01555617454336,二环内
df3aebc649f9e3b674eeb790a4da224e,4,东岗路与育才街D,114.52887824787759,38.01586223224013,二环内
df3aebc649f9e3b674eeb790a4da224e,3,东岗路与育才街D,114.52892523928345,38.01561222588585,二环内
51db672ac302a163017367f46d48f602,3,体育大街与裕翔街,114.53381929994671,38.012775520957256,二环内
022e0ee5162c13d9a7bb3bd00fb032ce,2,北二环主路和平路出口,114.47600140817426,38.084534700648234,二环内
595373f017b659cb7743291e920a8857,4,新华路与友谊大街D1,114.45138917625363,38.048741381105245,二环内
894a9b94bcc5969b60bd18e8ea9c0ddc,2,裕华路与站前街D1,114.48706958767575,38.0353707470898,二环内
d5b3d8dadd770c460b1cde910a711987,1,槐安路主路中华大街出口D,114.48304522447464,38.02484743174541,二环内
49ef08ad6e7f26d7f200e1b2b9e6e4ac,4,新石南路与中华大街D,114.47738954328277,38.008505853208675,二环内
1e0f65eb20acbfb27ee05ddc000b50ec,2,汇通路与石栾路2,114.50572186637159,38.013748124805645,二环内
692baebec3bb4b53d7ebc3b9fabac31b,3,新华路与中华大街D,114.47741257664335,38.04740286414967,二环内
64dcf3c521a00dbb4d2a10a27a95a9d8,4,新华路与中华大街D1,114.47722955182697,38.04749784299743,二环内
e23b16e83342d08d0d3ef4eeed9d3299,3,槐安路与平安大街D1,114.5023499845605,38.02264218826694,二环内
80fee67c8a4c4989bf8a580b4bbb0cd2,3,合作路与友谊大街1,114.4531186428376,38.05408376187484,二环内
5b80dc3087306fe93a4dca4faadaf71c,4,槐安路与平安大街D2,114.50222698735615,38.02278118944978,二环内
82356b37a12462391abf004c8362d389,3,槐安路与中华大街D1,114.47746656606796,38.024425865987084,二环内
82356b37a12462391abf004c8362d389,4,槐安路与中华大街D1,114.47732954833472,38.02548285043369,二环内
dc36f18a9a0a776671d4879cae69b551,3,体育大街裕翔园小区门前D,114.53395626939232,38.0091974989689,二环内
2e2c4bf7ceaa4712a72dd5ee136dc9a8,2,槐中路与谈固东街,114.57007335570198,38.02935491883226,二环内
2e2c4bf7ceaa4712a72dd5ee136dc9a8,1,槐中路与谈固东街,114.57099305550423,38.029394688068926,二环内
a85edfa24307bad582dbfb9713d7eb6b,4,东二环塔北路出口,114.57770282590786,38.01616297588193,二环内
95688ba636a4720a85b3634acfec8cdd,3,东二环学苑路出口,114.57813967728146,38.00964486264053,二环内
7a576629fef88f3e636afd33b09e8289,2,南二环裕翔街出入口,114.52576676705381,38.00123562399356,二环内
f0467e856f9ee5f05a1815fca47b7787,4,青园街（槐中路至槐北路）1D,114.51776090823753,38.02903145518308,二环内
a7b7e4b27722574c611fe91476a50238,2,光华路与谈固大街,114.56012251346603,38.059213334498395,二环内
488e4104520c6aab692863cc1dba45af,3,青园街（建强路至槐安路）D,114.51807186491293,38.02074342651397,二环内
488e4104520c6aab692863cc1dba45af,4,青园街（建强路至槐安路）D,114.51812085767533,38.01898842182178,二环内
4de1ed74128a96a8b5900186486aacba,2,建强路与青园街,114.51534916467244,38.01870364325209,二环内
829083d7452626f6e64b96ec0b734811,4,兴凯路与中华大街D1,114.47722955422643,38.05058384346978,二环内
58e16dc760ca166c476403499ff5c59b,2,槐安路与育才街D1,114.52894724017773,38.02199722452927,二环内
58e16dc760ca166c476403499ff5c59b,3,槐安路与育才街D1,114.52878126747406,38.018880245956076,二环内
8ce8b102d40392a688f8c04b3cd6cae0,3,槐北路与育才街,114.52822037872353,38.03477432379852,二环内
126c2da128e5b044dc53405c25b4d8de,1,裕华路与谈固大街,114.56291664152239,38.036630672552484,二环内
e1ab840a08f6e72d3baf13622bef60ad,2,裕华路与谈固大街D,114.56189195921813,38.03645791634859,二环内
eae31887c8969d1bde123982d3d43cd2,1,塔南路与石栾路,114.51427626067468,38.005652715516426,二环内
eae31887c8969d1bde123982d3d43cd2,2,塔南路与石栾路,114.5145232366713,38.00556769847784,二环内
c6969ae30d99f73951cb976b88a457af,2,裕华路与中华大街D,114.47717653510477,38.03530283471254,二环内
a16f3a5bda35f1de87328623f0a1711f,1,塔南路与谈固大街,114.56436217493507,38.006583321612226,二环内
8ca01ea920679a0fe3728441494041b9,1,塔南路与谈固大街D,114.56383933898607,38.00657344758894,二环内
0e2db0cb2c4645904a054261104b7a14,1,裕华路与中华大街D1,114.47705251823959,38.03549282028798,二环内
0e2db0cb2c4645904a054261104b7a14,4,裕华路与中华大街D1,114.47732355604161,38.03644585197784,二环内
5a499f6e26313e19bd4049009bbed5bd,3,东二环槐安路出口,114.57776580540933,38.01805095976117,二环内
a1e865a9b1065392ed6035d8ccd072d9,3,裕华路与中华大街D2,114.4774605732326,38.03467686743492,二环内
c46489a2d5a9a9ecfc53b17610926ddd,1,北二环胜利大街出口,114.51739899119531,38.07970949493647,二环内
4670c07872d5314c6ad6ffa633d4a059,2,槐中路与东二环,114.57661319514978,38.029480257362536,二环内
f72f78a365657d56853b6867fb37dc3c,2,东岗路43中南门礼让D,114.52735951297566,38.015492430474225,二环内
f72f78a365657d56853b6867fb37dc3c,1,东岗路43中南门礼让D,114.52703356835356,38.015516471780124,二环内
f29e2360ef277f77595dfae0aab78138,3,东风路与平安大街D,114.50227398779913,38.024523189478565,二环内
f29e2360ef277f77595dfae0aab78138,1,东风路与平安大街D,114.50279597582305,38.024778184034126,二环内
3e98410c45ea98addec555019bbae8eb,2,华新路23中北校区门前西D,114.50399097394512,38.06370917449675,二环内
3946bb00df4eebe135aa471d36e6ef68,2,东风路与青园街D,114.51722496625497,38.024325498747714,二环内
f5e536083a438cec5b64a4954abc17f1,3,东二环中山路出入口,114.57678214479795,38.04771821446326,二环内
2e5ac40b5a02c5a2c35fe028a266aa91,2,裕华路（东二环至高速口）,114.5781196927302,38.03676986926636,二环内
db2de541293171af2b0ccdf7c64d72d4,4,平安大街佳农市场北由北向南1-3,114.50246597651613,38.01614218533644,二环内
b0b07fecb2354efcdfc9671484b6eaa9,4,南二环中华大街北侧由北向南1-3,114.47729452754017,38.004831841231734,二环内
2354c276f1c9156f4b97a11a7aa41254,3,南二环中华大街北侧由南向北1-3,114.47754756173921,38.00482287034342,二环内
9c415bdd4dd66723ef7b38853ef35ddb,3,东风路平安大街南由南向北1-4,114.50228298731035,38.024172189303584,二环内
69cd21a0e0b7d5f05dc88a0be36950c7,2,东风路休门街东由西向东1,114.50734579662276,38.024740078195414,二环内
35d8f387d4934b6ee53ce5c9a1d8c1d7,1,东风路休门街东由东向西1,114.5073027989415,38.02476007968335,二环内
fbd85d9451c0d7555518534bcbac00e3,2,石栾路建通街由西向东1-2,114.50825773339773,38.010666040681485,二环内
23c894276a2c5a16470e6a31f4618d73,2,裕华路科大门口由西向东1-5,114.51240045501402,38.035527843241454,二环内
547b85f3fafdf30856386753dc21c4e1,2,东二环塔南路西由西向东1-2,114.57726197047778,38.00672208877396,二环内
f065d878ccfb4cc4f4265a4ff8bafa9a,2,东二环东岗路西由西向东1-2,114.57618133496175,38.016422367536244,二环内
8f91c9c261bfa0650898a921928d0950,4,北二环友谊大街南由北向南1-2,114.45432497732742,38.0846320214257,二环内
23a6de9d1b696e1e7ddd06bb056745a2,3,北二环友谊大街南由南向北1-2,114.45438199199371,38.08446303357287,二环内
7f83c19d8adc72f08f8fde30a57eef79,2,东风路建设大街东由西向东1-2-1,114.51529017528317,38.02430864905489,二环内
8be6adae5ae0e157014d7d250870f212,4,园明路建设大街南侧由北向南1-3,114.5117615185539,38.048311882934044,二环内
e0f48a1058f0f0204b22d4a2fd6f18ae,2,和平路谈固大街东200米由西向东1-4,114.56509896482974,38.05448714810233,二环内
987b75e2727ae55289abd70d3f5864e6,3,中山路体育大街北由南向北1-5,114.5326855502673,38.043337699323736,二环内
4b2ae7d938d2edc52ee760535f0003e2,1,裕华路与红旗大街,114.45966926363953,38.03505810493073,二环内
107878346e1d8f8fe6af7a7a588aa807,4,中华大街裕华路北向南,114.4773215557876,38.036468851750925,二环内
1b9a80606d74d3da6db2f1274557e644,2,和平路主路青园街出口,114.51575215132421,38.05370562129055,二环内
d042be1b4b72c110d21287b3dad13867,2,南二环建华南大街主路上桥口西向东,114.525685780284,38.00139363379121,二环内
a4ee59dd868ba016ed2de90d330acb6a,1,北二环高营大街外侧主路,114.56168903995177,38.072919966911655,二环内
10493aa88605cad5ab4752b04a63d172,1,北二环中华北大街外侧主路内侧,114.47467121176344,38.08526953416298,二环内
517da335fd0ec2f4a25ea139d5494163,1,北二环石清路外侧主路,114.46228789325586,38.085976600136696,二环内
8ede06ecd4c633266fdced4089d42ddd,2,槐安路路南时光街东侧,114.43509426162987,38.0244183705607,二环外三环内
a11da6bd58b95b334f8cd49f00918f16,1,和平路主路青园街入口,114.51577614878646,38.053689619478305,二环内
1437751a77305a0c4c8d44127bd8c285,4,东二环中山路出入口D,114.57663719073885,38.04014225160566,二环内
b5d62aa6024ab6a65a12c78c4c2d4efc,1,中华大街裕华路东向西,114.47978387135905,38.03551012168915,二环内
5a794da4f056dcd732eb706e9ef991d7,2,中华大街裕华路西向东,114.47718153580203,38.035319835297344,二环内
704cddc91e28d1a5517518b2f12bc321,3,中山路与体育大街南口,114.5328225230543,38.04333967884475,二环内
d5c8e1ab6fc0bfeb5f29aafa999cdb29,3,中山路与建设大街南口,114.51196549649599,38.04175686998809,二环内
82138b11a724b94d18df2e083d8b7b55,4,中山路与建设大街北口,114.51180151111309,38.043224879623374,二环内
e5fc3b8d9510b02e42361c337597d9fa,1,塔南路谈固大街东向西,114.5627696726641,38.006549703773565,二环内
9fa04f87c9138de23e92582b4ce549ec,3,和平路华清街口,114.53990300103716,38.05413352464729,二环内
9fa04f87c9138de23e92582b4ce549ec,1,和平路华清街口,114.53972604209912,38.05413255578061,二环内
9fa04f87c9138de23e92582b4ce549ec,2,和平路华清街口1,114.54042487907509,38.05405343217822,二环内
d6f84c02e2a54908d96f410083beb6e0,1,和平路华清街口,114.53910018615049,38.05405366499039,二环内
c359889a833e7612e0cff1dc69d272bc,2,和平路主路体育大街出口处,114.52788545159507,38.053666371126276,二环内
b6e710870acb098e584277457ba89d68,NULL,迎宾馆街翠屏山迎宾馆北向南主路,114.35901357198263,38.04091742666135,三环外
78bc62d08a9a0b9b0b9c0ad339ef82d3,NULL,迎宾大道御园路西向东,114.35937582761944,38.04814405226146,三环外
a081cab429ff7a3b96e0a07319f1049e,NULL,迎宾大道御园路北向南,114.3593768277526,38.048238052361214,三环外
748d6b6ed8e13f857ceaa6cfbdca14b8,NULL,迎宾大道御园路东向西,114.35938482902915,38.04826405342179,三环外
473447ac58e1cd7e96172575f48dca3b,NULL,西三环南新城南终端,114.37451847690966,38.08300965152322,二环外三环内
66121d1f782d29b62a286909165517bc,NULL,西三环和平路南终端,114.37521604778935,38.07440398381703,二环外三环内
38ca89564b2259401518960f7a06f94b,NULL,西三环新华路南北向南,114.38272500971453,38.05976931257502,二环外三环内
c21002f464c5fc5bee3b98ced83963b8,NULL,裕华路西三环口终端,114.40277992726035,38.03460825507811,二环外三环内
abea47ba24142ed16b7d8fbf2c740e0d,NULL,西三环裕华路南终端,114.40362241044045,38.03365780572092,二环外三环内
c6036a69be21cb660499b75718a3ef24,NULL,槐安路西三环东西向东,114.41055827854585,38.024343464451874,二环外三环内
b571ecea16a9824023ee1af16897a582,NULL,槐安路西三环东终端,114.41083447392658,38.02434260205349,二环外三环内
0f2c9a93eea6f38fabb3acb1c31488c6,NULL,西三环槐安路南终端,114.41402217808982,38.02416590043859,二环外三环内
f197002b9a0853eca5e046d9ca4663d5,NULL,南三环石铜路西终端,114.43245528395127,37.99534946183429,二环外三环内
e3ea33961a7c5b1ec04d6c97aa3b5379,NULL,古城路景源街西终端,114.43627608046671,38.10637734675601,二环内
f7f580e11d00a75814d2ded41fe8e8fe,NULL,新华西警务站西向东,114.4361986301607,38.04908566274298,二环内
184260348236f9554fe9375772ff966e,NULL,新华西警务站东向西,114.43658875593046,38.049185765311265,二环内
8d9766a69b764fefc12f56739424d136,NULL,西二环天翼路北向南辅路,114.43683884815628,38.07560282925696,二环内
8a3363abe792db2d8761d6403605aeb7,NULL,石清西警务站（田庄桥）东向西,114.44370270113268,38.1027110328636,二环外三环内
07f75d9144912970de5a09f5a305e10c,NULL,槐安路城角街西向东,114.44404606357215,38.02463041934614,二环内
9da187a7a191431db943a9a5a6fec6f4,NULL,工农路城角街终端,114.44418290825894,38.03183403341424,二环内
160c88652d47d0be60bfbfed25111412,NULL,石铜南警务站南向北,114.44622999794021,38.00465815476157,二环内
2ac2406e835bd49c70469acae337d292,NULL,友谊大街裕华路终端,114.45225060033393,38.03492249080171,二环内
0e7e05fa1026b0c5459267608ae320b8,NULL,友谊大街新石北路北南向北,114.45241643502698,38.018856605226915,二环内
ae5e3ce40e0404a45ecacaaf05e5f735,NULL,槐安路友谊大街东向西,114.45240083440977,38.02476020263479,二环内
3fe78a8acf5fda99de95303940a2420c,NULL,友谊北警务站南向北,114.45495915266905,38.103621154657105,二环外三环内
4a213d37242bdcad8e7300e202e7caa4,NULL,友谊北警务站北向南,114.45482211740735,38.10351312573427,二环外三环内
d2cd33e9c0236a8c2d8bd3fa91ad3acf,NULL,合作路新合街东向西,114.45666495192198,38.054101239617616,二环内
ca793d8b79c1b6665cf109d6077a8277,NULL,合作路新合街西向东,114.4566770549269,38.05410229209191,二环内
b445e314138101eecc58503e98aa2b2d,NULL,红旗大街工农路北向南,114.45955023354759,38.031671081474656,二环内
2cfd4560539f887a5e420412b370b361,NULL,红旗南警务站南向北,114.46470933458802,37.974256011898824,二环外三环内
c7635bfd99248a2cdef8249ef7bfbef4,NULL,红旗南警务站北向南,114.464538299189,37.97447898243722,二环外三环内
a1d50185e7426cbb0acad1e6ca74b9aa,NULL,南三环红旗大街西终端,114.46485996451418,37.97245719719589,二环外三环内
56503192b14190d3826780d47c0d3bf3,NULL,水源街兴凯路北向南,114.46564878179784,38.05162860908843,二环内
703957b6dd9e3a7980e040bee50ded65,NULL,水源街兴凯路南向北,114.46568628949021,38.0517468954231,二环内
165a59f7cf3b5c4396ba65953d679f17,NULL,维明大街自强路北向南,114.46973455682772,38.040047590363166,二环内
d6ef5f7fa914c19931a55bb262ec879c,NULL,维明街南二环终端,114.47027912800303,38.00454770440327,二环内
5055cbf43fac3f7e2336b27310f0b9ef,NULL,自强路中国大酒店终端,114.47164869159697,38.04002112070073,二环内
678a1491514b7f1006d605e9161946b1,NULL,中华北大街石太高速南终端,114.4743929883592,38.11031172862538,二环外三环内
491442df5f88c6aa018e86dac21d3606,NULL,中华大街辅路古城路南南向北,114.47577038936865,38.10353167286403,二环外三环内
f7cade80b7cc92b991cf4d2806d6bd78,NULL,中华大街辅路古城路南北向南,114.47558036153272,38.10345164936563,二环外三环内
a36b598abb934e4528412e5a2127b931,NULL,中华大街新苑路南向北,114.47794768326804,38.092212929559864,二环外三环内
6a61d423d02a1c56250dc23ae7ff12f3,NULL,北二环红星街桥上西向东,114.4933808766818,38.08295600191279,二环内
4588e674d3f0faf985047d4c3f13ed0d,NULL,红星北警务站北向南,114.49472202906132,38.09595998669583,二环外三环内
8ce6790cc6a94e65f17f908f462fae85,NULL,红星北警务站南向北,114.49473942939538,38.09580484719003,二环外三环内
e8b1cbd05f6e6a358a81dee52493dd06,NULL,胜利南警务站（石邯路）北向南,114.4967013736023,37.9812260988418,二环外三环内
55b1927fdafef39c48e5b73b5d61ea60,NULL,胜利南警务站（石邯路）南向北,114.49682477525708,37.98121765113678,二环外三环内
b24d516bb65a5a58079f0f3526c87c57,NULL,仓兴街南二环南北向南,114.50858330568086,38.000933554691834,二环内
8a057268a74a5f1201285aa667585e15,NULL,胜利大街建设大街终端,114.51167974663501,38.07432676198063,二环内
3f67fd97162d20e6fe27748b5b372509,NULL,建设大街南二环南南向北,114.51291748237048,38.00149766261056,二环内
3948ead63a9f2944218de038d8934305,NULL,建设大街南二环南北向南,114.5129710775786,38.00141311926539,二环内
900c563bfd2c48c16701acca83ad858a,NULL,青园街塔南路北向南,114.51857899192261,38.00577391802345,二环内
dda99de58ff020cfb57fec1404c97003,NULL,青园街塔南路南向北,114.51857899177574,38.005591097968775,二环内
fd06b8ea02fe5b1c2496fe1700e9d16c,NULL,胜利北警务站（西古城）南向北,114.52457833197683,38.09883566261912,二环外三环内
9b9b05072dd20d1cc3e54607b84c889b,NULL,育才街槐中路北向南,114.52848562737591,38.028666297539715,二环内
2290a7385ed77cc5592dc2153229f082,NULL,裕翔街南二环南终端,114.52969368945125,38.001317377845844,二环内
c9f95a0a5af052bffce5c89917335f67,NULL,体育大街北二环南向北,114.53129204782535,38.07827627875433,二环内
e58cc5ca94270acaceed13bc82dfedf7,NULL,体育大街北二环北向南,114.53124185701112,38.07771091589856,二环内
708f3cf8100d5e71834b1db77dfa15d6,NULL,体育大街和平高架桥北向南,114.5322722396898,38.05399050254205,二环内
f2bff080785c76aa81dbaffce7dea0ad,NULL,建华北二环北向南,114.54497478101496,38.07596958928406,二环内
aac61539fd1fb209b44b9f9d0d8d28ac,NULL,裕华路建华大街终端,114.54622993363962,38.03629326924302,二环内
9bdb8b1faffa4b3d41779bb495d79fb9,NULL,和平路翟营大街北,114.55367501547202,38.05445435237996,二环内
1896a3bf730516dd643ba67b4c447d36,NULL,翟营大街裕华路北向南,114.55427423347976,38.03631365895642,二环内
1458e7509aa5f47ecfb92536e7dd1dc7,NULL,翟营大街方兴路北,114.55586574631815,37.989376247659465,二环外三环内
16e6a3326dd7d868cbc926602a61e4d0,NULL,石栾南警务站西向东,114.5572483319921,37.97454098277223,二环外三环内
37d0b499fb84a552c17fcbb1442d7895,NULL,谈固西街东岗路北向南,114.559647635511,38.016040440359944,二环内
285da2198b2b496c9d447cc4ac6b0734,NULL,谈固西街东岗路南向北,114.55965763252605,38.0161244380506,二环内
b99d193b66a6542917d2b7bee52c2574,NULL,谈固大街光华路北,114.56154227846515,38.05932909097183,二环内
94ef7214c4a90790186e255304f8fd1f,NULL,北二环谈固大街西西向东,114.56361543998042,38.071428507312056,二环内
4172f3101212a2009c74b547b6ddf935,NULL,高营大街北二环北向南,114.56391234709334,38.07194743588295,二环内
8f1d43620bc6bb580df6e80b0dc05c48,NULL,裕华路东二环东向西,114.57680813243884,38.03685720751043,二环内
2e2c080d5490760af59d0baf5acbb84e,NULL,东二环北二环南向北,114.57843559557948,38.06489478764052,二环内
88855547570f7ff053fff7c54e5148cc,NULL,东二环北二环北向南,114.5781926772437,38.06481385046564,二环内
a8240cb8235e9c493a0c30607586166c,NULL,南三环308国道东东向西,114.57850303905927,37.95840694207417,二环外三环内
0c048b3a434e49e655c1247efb389cec,NULL,南三环308国道东西向东,114.57872296527535,37.95830959525225,二环外三环内
8248a99e81e752cb9b41da3fc43fbe7f,NULL,东三环和平路南终端,114.67566397110909,38.04047581420273,二环外三环内
69a5b5995110b36a9a347898d97a610e,NULL,东三环北五女南南向北,114.67707825837978,38.053737834127105,二环外三环内
fe709c654eac84d5239d1a12a4f71877,NULL,东三环北五女南北向南,114.67676125898784,38.05358783236846,二环外三环内
c3e0c62ee91db8dc7382bde7419bb573,NULL,东三环丰产路终端,114.67788347688554,38.01415113334197,二环外三环内
de7f47e09c8e05e6021ababdf6bc58e7,NULL,东三环南席村口终端,114.68089961929108,38.004743667386094,二环外三环内
cd89fef7ffdd490db800357f47722b20,NULL,南二环红旗大街东西向东,114.4594371890549,38.00445205463155,二环内
9f36407ead0629fc166f14dde7970f68,NULL,西二环西柏坡高速引道南向北,114.4370589215332,38.0816108862397,二环内
4f16c818875d9fcb6867c7bdc89be7eb,NULL,裕华路西二环西向东,114.43864340469622,38.03460430017162,二环内
03f544613917945245041ea1581df0c2,NULL,古城路体育大街东西向东,114.55586780795791,38.101972309772485,三环外
fd2c5e4680d9a01dba3aada5ece22270,NULL,胜利北警务站（西古城）北向南,114.52427707860488,38.09866981722169,二环外三环内
2b38c2df6a49b97f706ec9148ce48d86,NULL,石清西警务站（田庄桥）西向东,114.44351794545639,38.10276552733281,二环外三环内
6e7d2da6d3953058db75714ac400b584,NULL,石栾南警务站东向西,114.5576922004165,37.97455288188953,二环外三环内
2f29b6e3abc6ebdefb55456ea6ca5dc8,NULL,体育北检查站北向南,114.54957558276946,38.09541966825023,二环外三环内
0a0a0c8aaa00ade50f74a3f0ca981ed7,NULL,体育北检查站南向北,114.5496555609602,38.095326651654574,二环外三环内
dabd8d2ce74e782c65a973ef76fd540b,NULL,中山西警务站北向南,114.49498599245224,38.04384612694471,二环内
97af4fb322bb5c8973ade16764156bed,NULL,中山西警务站东向西,114.49502699337458,38.04373312805294,二环内
82c2559140b95ccda9c6ca4a8b981f1e,NULL,谈固东街裕华路北向南,114.57034527002155,38.03657485123886,二环内
a42a596fc71e17828440030074d15e74,NULL,石铜南警务站北向南,114.43714291079976,37.99803590731177,二环外三环内
1f4fe6a4411edc2ff625888b4093e917,NULL,仓丰路建设大街东由西向东1-3,114.51338933294107,37.99263677002319,二环外三环内
cbef46321026d8404bc3216d4774c8a9,NULL,槐安路翟营大街东由西向东1-3,114.55479407598816,38.02262454233678,二环内
0070d23b06b1486a538c0eaa45dd167a,NULL,方兴路翟营大街东由西向东1,114.55591373224843,37.989263286902485,二环外三环内
3e9e39fed3b8369ed940f52cf300cf88,NULL,槐安路谈固南大街东由西向东1-4,114.56284865595654,38.02274468723352,二环内
a088ea2078cd92b0b8a0e78a32c5c082,NULL,方兴路翟营大街东由东向西1,114.55591873081258,37.989306285793994,二环外三环内
26f5bd4aa64fdadf96152ca6e6408068,NULL,隆泰路谈固东街北由南向北1-2,114.57062617426084,38.02650678002193,二环内
801272ee79cfde7fa5960571fee36b9b,NULL,隆泰路谈固东街北由北向南1-2,114.5706221755666,38.02650678102569,二环内
2cd4e8a2ce081c3d7c32c3cde4312ef7,NULL,槐中路青园街北由北向南1,114.51775690823212,38.02844545537879,二环内
194cf6c2de8e00c05fcf16c498adc7bf,NULL,东岗路谈固大街北由北向南1-2,114.56303959336269,38.016195640754916,二环内
a1d7311f2a312426d710e1c617fcbc8c,NULL,槐安路谈固大街南由南向北1-2,114.56284965565139,38.02275668699638,二环内
978d76676f5e7918f81d28e7d092ca0d,NULL,金马路谈固东街北由北向南1-2,114.57088608681094,38.02021471418006,二环内
c5866e93cab1776890fe343c9e7063fb,NULL,东风路建设大街东由东向西1-2,114.5123634489313,38.02432284267833,二环内
8232e119d8f59aa83050a741631803a6,NULL,金马路谈固东街南由南向北1-2,114.57091707666659,38.02018170638792,二环内
7b1ce3d73b70f1a7246e7b76a35fb552,NULL,槐安路翟营大街北由南向北1-2,114.55475408753861,38.022629551176664,二环内
e7e23670481ac78b3c4122a99ba60573,NULL,槐北路谈固东街南由南向北1,114.57049721892248,38.03283781287449,二环内
24f0d2c90473b2bc949ad962e61d9bcb,NULL,槐安路翟营大街北由北向南1-2,114.55472009734959,38.022628558686584,二环内
c6335734dbc0b1ded766421cfc611750,NULL,南二环建华大街南由北向南1-5,114.54726114312636,38.00187212755717,二环内
9185f3ec501c674c7c788464a36e7fb3,NULL,槐北路谈固东街南由北向南1,114.570467228725,38.0328728204006,二环内
931af583573227f0220bc568c65ce104,NULL,龙腾路建通街北由南向北1-2,114.50986963119409,38.012484971812356,二环内
c3535febaff29fcb7c0d20cbe94391c7,NULL,龙腾路建通街北由北向南1-2,114.50975263928265,38.01250897728567,二环内
1a0a283bfe7c549dee6c638a05200e32,NULL,槐建路谈固西街北由北向南1,114.55860295504283,38.02473568313679,二环内
a29d1598024f9e87beab4b98411d48ce,NULL,槐安路富强大街北由南向北1-3,114.52337115588882,38.02198290613175,二环内
51174add1c52758f33d414ceaf3fe6ba,NULL,槐建路谈固西街北由南向北1,114.55865493941833,38.024700671169825,二环内
4ba3c163cd1efd4c14e3a415fa0a3010,NULL,槐北路育才街东由东向西1,114.52842034147903,38.0320532969174,二环内
1b5230e3ea6d7123847ad55a1e06fffd,NULL,槐北路育才街西由东向西1,114.5283813483436,38.03203930205388,二环内
44cd7a8f7f9f85129b9953950665064d,NULL,南二环建华大街南由南向北1-5,114.54742210073518,38.001709095257226,二环内
5a1e3a5aede16d438c38862cac1a78db,NULL,裕翔街伟建花卉北由南向北1-3,114.53030895299341,37.970622022799155,二环外三环内
ef41d488755367316f04fc0e0e9dc9fc,NULL,裕翔街伟建花卉北由北向南1-3,114.53017697747072,37.97060604117244,二环外三环内
a012869311d64a44b5a0d567cd20de04,NULL,南二环建华大街东由西向东1-4,114.54748608392114,38.00174708241967,二环内
7dc1c7653ac42a05642a667959c12239,NULL,石栾路汇通路南由南向北1-2,114.50537388123567,38.013883133772126,二环内
c182f930a06317057d31c73bb2fedd4f,NULL,东岗路建设大街北侧由北向南1-3,114.51253342704008,38.01530083011504,二环内
936a40b7e8eea0dc537e5f2edee1387a,NULL,石栾路汇通路南由北向南1-2,114.50526088589687,38.01392513655324,二环内
e21e4e58ad9ab56e8a4634046da90113,NULL,仓丰路建通街西由西向东1-3,114.50156097490327,37.99248618510222,二环外三环内
d30960ce77e83d896503d43ba249caf7,NULL,塔南路建通街北由南向北1-2,114.50508688768124,38.00770713884972,二环内
24917db15c4e37e421866448c9ab23d8,NULL,塔南路建通街北由北向南1-2,114.5049368935504,38.00772814230295,二环内
a486cd07e4ac3d270571622f4f316ec5,NULL,仓丰路建通街西由东向西1-3,114.50168397279428,37.99254518438869,二环外三环内
cb8da6767461f2812ae4290eac7cbc42,NULL,308国道方兴路东由西向东1-4,114.5420198552067,37.988580040065195,二环外三环内
1e8c391abfde9abea82d75a2d60278d4,NULL,东岗路富强大街南由北向南1-2,114.52351412930592,38.01532188860294,二环内
ee26fc66b1369c7625333bedafbfcaf6,NULL,塔南路青园街西侧由东向西1-3,114.51848680307643,38.00573138614859,二环内
697e382cfd25b07a3e62275d3ee132b3,NULL,南二环体育大街北由北向南1-2,114.53407623950173,38.00184947848695,二环内
ddd9dda6bfaf0bb1525a8a27c3ee6131,NULL,裕华路育才街南由北向南1,114.52821738001256,38.03577632440532,二环内
86e78499eeb33fb9cac16b7555b50767,NULL,绿洲路谈固大街北由南向北1-2,114.57107502263925,38.01424066608042,二环内
32e05616c8ed659463f9af00b142dd6f,NULL,建通街金利街北由南向北1-2,114.50172698189861,38.004389188010734,二环内
41e7637e7b6a9f27a98b84d3a185c7c0,NULL,建通街金利街北由北向南1-2,114.50165398324037,38.004424188482204,二环内
bd0cc810b580b35884bd9df37c0e8b0f,NULL,东岗路体育大街北由南向北1-2,114.53373032015364,38.01565353532438,二环内
88a839f2f6f1427879fc33ee4acf4f66,NULL,塔南路谈固东街北由北向南1-3,114.57123496736057,38.00683962500561,二环内
f8e59f4b2fe7c5705bf878bbd494ccdf,NULL,南二环裕翔街西侧由东向西1-4,114.52931615832611,38.00157416938403,二环内
9978b7063e297d84bb2ac8e46c1c845f,NULL,塔南路裕翔街北由南向北1-3,114.52940014649353,38.00606215925607,二环内
7bc1ec1d9c3426357e69acd5bf320061,NULL,南二环体育大街西由东向西1-4,114.53402824919092,38.00165648584728,二环内
d1a21da7bca4abff8b0b61b87597de73,NULL,槐北路谈固东街北由南向北1,114.57046323008719,38.03301382141375,二环内
0234c510bc6d908b28c70ff313743079,NULL,槐北路青园街东由东向西1,114.51775391137373,38.03190245646542,二环内
bb1662b7c5f22a0f905fd59e718ca05e,NULL,方华路建华大街北由南向北1-4,114.54769202250986,37.99035703820975,二环外三环内
12b1e42dc0746f22cf361267de07073f,NULL,槐安路翟营大街南由北向南1,114.55472009733721,38.022606558683066,二环内
3a1dd98341fafc1dfe9bcf36360e6b84,NULL,方华路建华大街北由北向南1-4,114.5477180156454,37.99035403297165,二环外三环内
d51b416788b6ee70eb0c381c06efc9f1,NULL,槐北路建设大街东由东向西1,114.51212347522949,38.031806858605705,二环内
2056d8c1dec3d12cbce646b348d189d1,NULL,塔南路谈固大街北由南向北1-2,114.56334749276533,38.00660356565459,二环内
00a03ec6533ca7f5c644d198d815329c,NULL,槐安路翟营大街南由南向北1,114.55472509587769,38.02257655757402,二环内
f12ee9734e1edf70ed02d9829018b3d9,NULL,南二环翟营大街西由东向西1-4,114.55533790706397,38.0021884180785,二环内
81b3833e2504647f9d794f7d7b9bf341,NULL,塔北路谈固东街东由西向东1-2,114.57123796810471,38.01119062475061,二环内
e2ad76f2326fbc6b56a45a56c59fafdb,NULL,槐北路谈固西街西由东向西1,114.55822707184979,38.032636770508944,二环内
b440509a0106086a67bc2ea9df0a1dab,NULL,槐安路翟营大街西由东向西1-4,114.55467411065995,38.02270256885455,二环内
1c6a0198177bfcc9bd93f6aab94aad3c,NULL,槐北路谈固西街西由西向东1,114.55820507841167,38.032604775546346,二环内
0a87257e5308197df43230edf4ad1dae,NULL,塔北路谈固东街东由东向西1-2,114.57127495601569,38.01124061544492,二环内
71560ce98c8250ce57a6a970c9991a5f,NULL,槐北路民心河西由东向西1,114.540207315109,38.03225963718546,二环内
cdf1e288ca02272e717c9d5e4cb180bd,NULL,槐北路民心河西由西向东1,114.54009174208659,38.03226886764957,二环内
8c5f6ecd29a0eb234459190ca51c16dd,NULL,南二环石栾路西由东向西1-2,114.51986162774416,38.0015102594565,二环内
1145a30ff80745b56fb0cecf65305017,NULL,方兴路308国道东由西向东1,114.54238036781143,37.98830906367168,二环外三环内
dd28e50635038e9cf3a648c2dd17ad0a,NULL,槐北路翟营大街西由东向西1,114.5543202181468,38.032580648330416,二环内
2d969e2cee8cfa07ce7ca0bb13c7a36d,NULL,方兴路308国道东由东向西1,114.5424183586001,37.988326056662494,二环外三环内
4b4edc2630fe75800ddc29a7b4070add,NULL,槐北路翟营大街西由西向东1,114.55433121497614,38.03256364590921,二环内
fea9c11c4ad9a395a636ed944a28b51a,NULL,槐中路谈固大街北由南向北1-2,114.56271969923675,38.02930671879059,二环内
4aecfbe5d21e3f7912bf8eb29124423a,NULL,槐安路体育大街东由西向东1-4,114.53366233871189,38.02216354728328,二环内
db116b39f7a3ac5366079b1d9fe249a5,NULL,槐中路煤机街南由南向北1,114.55100914967107,38.02895536170137,二环内
1368ba1ab6ed38bb1f26f36673739d54,NULL,槐中路煤机街南由北向南1,114.55098715575066,38.028959366345575,二环内
05a70454516ecd9194c293b0e415777f,NULL,绿洲路雅清街东由东向西1,114.56708131550191,38.013963659879046,二环内
f3d9de86462c28781cbe5c47ef22c3e5,NULL,槐北路谈固大街南由北向南1-2,114.56240779768613,38.032624793460954,二环内
02e656adee09f8394b402d9958389b7d,NULL,绿洲路雅清街东由西向东1,114.56706432093439,38.01394666405668,二环内
5938b4d054136e5d59ada6ec9c295d7a,NULL,塔南路翟营大街西由东向西1-3,114.55508498274057,38.00637647506283,二环内
b5c01503041b70d41d80e3dbe31bbd8c,NULL,槐北路民心河东由东向西1,114.54047155321629,38.03225021022462,二环内
b0df2270be9cb16c14537e5bc2f2d37b,NULL,槐北路民心河东由西向东1,114.54061621921034,38.03225852441385,二环内
13111c20aee51aeb480ecbd988cd8cc9,NULL,塔南路富强大街北由南向北1-2,114.52394005767523,38.0059358384039,二环内
d2a27e83d429f0dcae6b937cf440aeb1,NULL,槐北路青园街北由北向南1,114.51766792149228,38.03201146375713,二环内
598920e11d1eb2a49501d59fce5ecbb7,NULL,南二环建设大街南由南向北1-3,114.51305436976833,38.0008807939121,二环内
934b535800b1cba8f96a5d72f72f1611,NULL,东岗路建华大街南由北向南1-3,114.54678227711699,38.015726226115525,二环内
8ca8da41fe1ebc8d3ca31dc14f5fc56c,NULL,南二环建设大街南由北向南1-3,114.51289338389867,38.000778803870126,二环内
443dec3062d0286986e21dc0631734c9,NULL,塔北路谈固东街北由北向南1-2,114.57113500189588,38.0114266506883,二环内
01eee509ee2f68dc6014898c309e86bf,NULL,槐中路富强大街北由南向北1-2,114.69622629902278,38.04679179119226,三环外
efdf562ce2fb0ad460fd8e9d33e57f57,NULL,塔北路谈固东街北由南向北1,114.57116699143485,38.011442642641235,二环内
4ae67a7dd7e491f8fb6f9ea0cf25dfdb,NULL,方兴路建华大街南由北向南1-4,114.54754605991344,37.98862106713233,二环外三环内
6cd9313ed34ef58bad3fdd504355e72c,NULL,塔南路谈固东街北由南向北1-3,114.57136992317842,38.006844591028134,二环内
329e6581efbc90bd92a1f22c4ba2103d,NULL,槐中路谈固西街北由南向北1,114.5584540021346,38.02931371800207,二环内
2a8a812400df8963b2e2ac0ed01b07b8,NULL,南二环翟营大街东由西向东1-4,114.55558483517169,38.0019983630612,二环内
3e6260b81898beacda3d16db379ed329,NULL,槐中路谈固西街北由北向南1,114.55837902458485,38.02928073521688,二环内
e0f7a4d0ef9b84b83b693bbf3feb8e6e,NULL,308国道建华大街北由南向北1-5,114.5476860200431,37.98386403770626,二环外三环内
653ac11ca60b3e021a8c609c7198acfc,NULL,仓丰路建通街南由南向北1-6,114.50188596897624,37.9924671829911,二环外三环内
3dd9424294b0292b6e89ea2bba2e1144,NULL,仓丰路建通街南由北向南1-7,114.50150497580644,37.99242918539141,二环外三环内
b166b57d195370cd41f80dd29ed523d9,NULL,东风路青园街东由东向西1,114.51805886935871,38.02434542856545,二环内
d4dd111a4fd973394238aca5c05bebe3,NULL,绿洲路谈固大街南由南向北1-2,114.5631295642166,38.013876618914026,二环内
1a3f91fead97497b1a96d6104ad339f6,NULL,绿洲路谈固大街南由北向南1-2,114.56303659314933,38.01381564113735,二环内
3147da8ab4a0437c15ef51a5cc7f2dc4,NULL,南二环富强大街北由南向北1-2,114.52405003754333,38.001617824716845,二环内
10907813b97e249163587e6246612e21,NULL,塔北路谈固大街南由北向南1-2,114.56326252138277,38.01100058667558,二环内
758a06618c69880a6cee5314ee42d52f,NULL,仓盛路裕翔街北由南向北1-3,114.52987104694536,37.988014089428574,二环外三环内
be6c7b094f88532b6c6b35bbcd525ee8,NULL,东岗路谈固大街南由北向南1-3,114.56294762197015,38.01614166272599,二环内
a07c2f3b3b907aaf8436a26c6d77f0a2,NULL,仓丰路建设大街南由北向南1-3,114.51313135619121,37.99267378639788,二环外三环内
635440afdfc39fe37995fed127d7df4f,NULL,仓丰路建设大街南由南向北1-3,114.51330334075439,37.99267177552455,二环外三环内
04ad5632029cbfbed8e136e5f6f7ddfa,NULL,塔北路翟营大街东由西向东1-2,114.55529292500697,38.01095642975476,二环内
bbaa9d6a1445eac881750bea6053f564,NULL,东岗路体育大街南由北向南1-3,114.53359734710286,38.01559155565553,二环内
26505e0494662534f633586941b77d0c,NULL,塔北路翟营大街东由东向西1-2,114.55525093718587,38.01094443908337,二环内
66e8ba8216a1e152d72653d99a4f03ab,NULL,塔北路雅清街西由西向东1-2,114.56693636062542,38.01111769515138,二环内
53ed35c74a2ec275b837374f04396c03,NULL,汇通路石栾路东由东向西1-2,114.50549587617832,38.0139161307206,二环内
2b8eba3cb0d0f1d761cb74d94a5ace36,NULL,塔北路雅清街西由东向西1-2,114.56698034657299,38.01115468434644,二环内
51de85ddd068f0bc787691d356176df9,NULL,汇通路石栾路东由西向东1-2,114.5054418784272,38.01390013208004,二环内
a376033f78e144f494bfc743c0be3330,NULL,仓盛路裕翔街北由北向南1-3,114.52983205072724,37.98351009333537,二环外三环内
743394beff4b1282ba735e5e3723ed74,NULL,南二环谈固大街西由东向西1-3,114.56336548547411,38.00310156078334,二环内
074177d3eb6371e32c16c55a3b8f706b,NULL,308裕翔街北由南向北1-3,114.52970208171055,37.99306211423541,二环外三环内
95f8d9901ca8878e291552f001f67692,NULL,南二环金利街北由南向北1-3,114.50654681798314,38.001271097430646,二环内
6150ccc6069bea6b5716254057a194ef,NULL,东岗路育才街西由西向东1,114.5288432538958,38.015554236839364,二环内
fe40fb944ee700392ed51bfe84dd4e3d,NULL,南二环金利街北由北向南1-3,114.50639182546551,38.001292102124026,二环内
0f46c64b74a6c964c674853a89796c8e,NULL,仓丰路建设大街东由东向西1-3,114.51337833409724,37.99282977079257,二环外三环内
ae1eaa32d10b6c886981755d579fb4d8,NULL,裕华路友谊大街北由南向北1-2,114.4521323686696,38.03497054477682,二环内
fa2431bf9d65058fe34e9713e32d60e6,NULL,仓顺路107国道西由东向西1-2,114.49522195107927,37.98723711747369,二环外三环内
5b8e4fd39d9786228649a8a8bec4e008,NULL,裕华路休门街南由南向北1,114.50649884896603,38.03569710841734,二环外三环内
43351f7bf9a215be70c2c2caa7555002,NULL,工农路礼让街西由东向西1-2,114.48058496315838,38.031565202437164,二环内
98e6f17209029f4ae6dc9d88ec8eac2c,NULL,工农路礼让街北由南向北1,114.48065197091363,38.03155920911553,二环内
47810f956e3d8fb8a32fb276448b464d,NULL,裕华路铁道桥东由东向西1-3,114.48656054858365,38.035546711998734,二环内
229754d7799160502a143a72f6789927,NULL,新石南路红旗大街西由西向东1-2,114.45926515120762,38.00836902209336,二环内
16026d60ff9b54410b3435b403afd226,NULL,裕华路铁道桥东由西向东1-3,114.4865455472918,38.03541071091481,二环内
e069ea4c9c233d36ff9c7f329bc08ff1,NULL,新石中路京广西街西由东向西1-2,114.47946281485578,38.0134570830971,二环内
3de568f8597b94bda53149c7d7f5958c,NULL,新石中路红旗大街东由东向西1-2,114.45949220794171,38.01351506719112,二环内
40b5f25a228570053bc64a043c3f1833,NULL,利射北路胜利大街北由南向北1-4,114.49074480410346,38.01353395655959,二环内
46a558d97954d0692411c861cf78ef79,NULL,新石中路京广西街西由西向东1-2,114.47951682140688,38.0133640887505,二环内
2b45c629e577731c4df84fc34f936a89,NULL,利射北路胜利大街北由北向南1-4,114.49050079127164,38.013598944428054,二环内
ffedf5be3a86e2ee281d54cdc97bc1cf,NULL,新石中路红旗大街东由西向东1-2,114.4594932081748,38.01351306738435,二环内
e6c2dc3dee4a51dcec3a876aa2339a78,NULL,仓顺路107国道西由西向东1-2,114.49521395083839,37.987172117238686,二环外三环内
2d2ca7eedf739ef4c3800713ec482e1a,NULL,汇新路汇宁街西由东向西1-2,114.4640572159808,37.99986390619405,二环外三环内
f976b57bb9dd27aa2e7e7df2825893a6,NULL,汇丰路红旗大街南由南向北1-2,114.46107556015386,37.994669364411095,二环外三环内
e58aea67b01fa747687f038dfde066f6,NULL,自强路中华大街西由东向西1-2,114.47718454008695,38.04030683656534,二环内
49c0b9d84c2a16fcaf9d25694fda75e1,NULL,东马路平安大街西由西向东1-2,114.50162101216844,38.03835019779291,二环内
046ddf96c233a273fd390c3d0b1a9aa4,NULL,谊北路友谊大街北由北向南1-2,114.45167125047624,38.04502244362384,二环内
db9eeb7e678863649bce209842e0d164,NULL,四中路休门街东由西向东1-2,114.50650185098807,38.038298108923925,二环内
778609db5dc7e1a8315717a9cdd8fd6f,NULL,裕华路南小街北由南向北1-2,114.48448537168152,38.03551655537799,二环内
68d309812548887400e375eaa036d2f1,NULL,裕华路维明大街东由西向东1-4,114.47018743425849,38.03508490737157,二环内
426f990b332ef8193a61cc90516c1245,NULL,107国道南位道班由北向南1-3,114.49670497461899,37.98238914934433,二环外三环内
a11f9e533f28593768ebf87075ab34f2,NULL,自强路中华大街东由东向西1-2,114.47750758396207,38.040310873881516,二环内
a70dc40477bc2adceef4d2c90f47eb82,NULL,槐安路维明大街西由东向西车尾1-3,114.47078353171945,38.024987993334214,二环内
761c7920f470038d4c8a619c79eddd62,NULL,107国道南位道班由南向北1,114.49689497711971,37.982373152841355,二环外三环内
228bbc2f87caeb21bb7f6949fddcb91d,NULL,自强路中华大街东由西向东1-2,114.47746857862977,38.04022286938673,二环内
149815eb972b3c370dee3b89d645ae14,NULL,裕华路维明大街南由南向北1-3,114.47021143849481,38.03504591093348,二环内
d5e2fbef30a4eb668a203060ec8e5eef,NULL,新华路泰华街南由北向南1-2,114.46259293437524,38.04806865380522,二环内
6c97cd07663b099253bc569fe8d342bb,NULL,中山路泰华街北由南向北1-2,114.46302002373798,38.04268073027693,二环内
f1e2b2c9255d552500a833ac828cd635,NULL,裕华路维明大街南由北向南1-3,114.47006541249249,38.03503788918337,二环内
03255088ed63354a54e0e5ed957e9008,NULL,华西路维明大街东由东向西1,114.46952432277021,38.04547180936039,二环内
fd69dbe29f156a7ef876a40a94f65599,NULL,华西路维明大街东由西向东1,114.46949931820583,38.04544080556105,二环内
be53d253d6bc3258a8160556dda3e9b2,NULL,自强路中华大街西由西向东1-2,114.4772125438443,38.0402158398037,二环内
81b073de9370ea873f548e31b8adc081,NULL,槐安路支农路西由东向西1-3,114.46329207021091,38.02486177632162,二环内
777669af68dbccabc30c3b6bcaa81825,NULL,建国路城角街南由南向北1-2,114.44412008737466,38.027808677741454,二环内
b23975176653284f1f7356ba5539cfcb,NULL,建国路城角街南由北向南1,114.44409007839971,38.027808670398755,二环内
20c9f5700da1088260df60fcc5df2b53,NULL,振岗路西二环西由东向西1,114.43730697406025,38.02199095268646,二环内
70fcb77e6349f4467edd7227baa73222,NULL,新石中路石铜路北由南向北1-2,114.45437194577114,38.01400402676382,二环内
326a8c055c0d04f5b06544665d8bb3ea,NULL,华西路西建街东由西向东1,114.47138965154602,38.04542908455541,二环内
0abdc563a06105aee3c6136871c9f4d1,NULL,华西路西建街东由东向西1,114.47139465246721,38.04551808528496,二环内
92049debbe566ca5782a3045cf300a3c,NULL,新石中路石铜路北由北向南1-2,114.4543469393211,38.01402402145095,二环内
23af4b45f1e166141a790d1a3126e77a,NULL,中山路康乐街西由东向西1-3,114.47355300607039,38.04308638354466,二环内
d254c8a084d4545bd80577481aa03076,NULL,中山路时光街东由东向西1-2,114.42791287856926,38.041016422923676,二环外三环内
3f53d7190148675e3cd472fc826828c5,NULL,东平路东三教街东由东向西1-2,114.4932709185522,38.01765806576309,二环内
d20be76a86c0d71c75035fced631f874,NULL,中山路时光街南由南向北1,114.42788286834677,38.0408974146371,二环外三环内
d69116f8b0140cdeb1f99a4d5096ffe4,NULL,中山路时光街南由北向南1,114.42784385510842,38.040893403856494,二环外三环内
4ebd440d99504722d80de606ea8507da,NULL,中山路苑东街东由西向东1-2,114.41824454893957,38.04048771293483,二环外三环内
505259756244493872b7709a8a01b536,NULL,中山路苑东街东由东向西1-2,114.41823554582474,38.0405447103841,二环外三环内
f7e2b2b75b04175610e5a00c1e221ebb,NULL,中山路西二环东由西向东1-2,114.4371449309472,38.04131991106832,二环内
9fb7b048c96d44a0337f049e0a61ff06,NULL,中山路西二环东由东向西1-2,114.43710591848246,38.04138890087106,二环内
d3b1fb02964aa64e257f9f26a31f72cf,NULL,中山路苑东街南由南向北1-2,114.41821053710824,38.040437703323576,二环外三环内
300891a62162b960cf02ce3827bb363c,NULL,裕华路苑东街北由南向北1-2,114.41831557214704,38.03441473352131,二环外三环内
ab8aa05e782481f55fc1412a97e7ac34,NULL,裕华路苑东街南由南向北1-2,114.41832557558429,38.03425773636053,二环外三环内
0a65e195cb51418279b6fa8d96847a60,NULL,南二环塔谈大街南由北向南1-3,114.48738458524149,38.0036307599624,二环内
4c5bcfec8584af0d967f1ab10179ca4b,NULL,裕华路吉恒街北由南向北1-2,114.40732276747683,38.03425063836208,二环外三环内
5f14615696649541a025d3d0f8e0447f,NULL,中山路铁道桥西由东向西1,114.49266051699466,38.04365179875808,二环内
8cbd005a556ccd4211ce43f309bc0eac,NULL,南二环塔谈大街南由南向北1-3,114.48778861427351,38.003510786221696,二环内
123b7f02433572a0a560e620311a469c,NULL,中山路铁道桥西由西向东1-2,114.49277302134641,38.04354442314915,二环内
269d837afada308dd4aeab28ca2d57e4,NULL,槐安路休门街北由南向北1,114.50711580672642,38.02224508536202,二环内
3837a451cd0abc5ce4069304c5442c87,NULL,工农路维明大街西由西向东1,114.47033445778048,38.03163292858097,二环内
add217938e07bb1fd8796e0315b88c10,NULL,工农路维明大街西由东向西1,114.47032945690982,38.03165192784399,二环内
da4902cb0bc38210839714ebdcf0efc3,NULL,槐安路休门街北由北向南1,114.50708280849408,38.022302086478334,二环内
ee8fe9093fbbb687bef15a38facc44d2,NULL,三简路开泰街西由西向东1,114.43060579391367,38.06105616117307,二环外三环内
3baa271bc35fe054c86928f7016e8ae6,NULL,新石北路西二环西由西向东1,114.43732097708961,38.01879495610702,二环内
ea159dc9788ffac311592613b7f71fbb,NULL,新石北路西二环西由东向西1,114.43730597230491,38.018817952194254,二环内
1a68e5f4ade56ed1d4bf273e55510750,NULL,三简路开泰街西由东向西1,114.43059178923065,38.06107915734893,二环外三环内
99f59c0842e83c808dd1813b48a37c6a,NULL,工农路苑西街西由东向西1,114.41228747788979,38.03194403035015,二环外三环内
8b4224068a41c5d37f5e2d54f3995089,NULL,华星路中华大街西由西向东1,114.47734254316455,38.016556849858894,二环内
d04863f100d59b3eb688a11f95b0ae60,NULL,三简路简西街北由南向北1,114.4141809402676,38.06025267091474,二环外三环内
999600eb275cc7196161261972daa59b,NULL,三简路简西街北由北向南1,114.41417143700798,38.06047510818861,二环外三环内
102f0bb6efb3a6128a3c750dd16729be,NULL,宫北路红旗大街东由西向东1,114.46366211925935,37.98117783137632,二环外三环内
a554f89dd61cabd2ff833d3468e2008a,NULL,桥头街胜利大街东由北向南1,114.48824066419161,38.0261948208642,二环内
52cf49fea5ff66588408852f65cf8272,NULL,三简路长兴街东由东向西1,114.40885329602699,38.06015406120022,二环外三环内
d0921d442ee91b896ad95059d13df618,NULL,桥头街胜利大街东由南向北1,114.48830066826761,38.02620282456722,二环内
878d5691c824ee2aaf770f7d36c151d6,NULL,长青路友林街西由东向西1,114.45516716536656,38.03886219811119,二环内
565030e1fce4e481f9823a7de3b8a047,NULL,长青路友林街西由西向东1,114.45518216918224,38.03884620125753,二环内
bc7f621451b4f5df308a8e098112185d,NULL,新华路石桥村口东由西向东1-2,114.39500168024539,38.06090930548261,二环外三环内
03cf87174debaccd689c90c34577b82f,NULL,裕华路红旗大街东由西向东1-4,114.45960124763103,38.034902091776225,二环内
4dd9cec1c21bc54eecb53786a2c5fa09,NULL,新华路石桥村口东由东向西1-2,114.39500668183682,38.06099330675597,二环外三环内
bd7db7397f7d83052f829816ecc7f004,NULL,槐安路大经街西由东向西1-5,114.4955499875527,38.02231113673072,二环外三环内
8208974663db80265e9bfe7b222dcb18,NULL,三简路建东街南由南向北1-2,114.41847663446815,38.060485776049575,二环外三环内
b53477c2821c1bf0da5d40e57b870d35,NULL,中山路大经街南由南向北1,114.49732103293036,38.04357117771252,二环内
de7092ba6df4276921d27a3704c57998,NULL,中山路大经街南由北向南1,114.4972670323939,38.04358317685251,二环内
97416ac0f58056947e2eb5d5d253d4f2,NULL,三简路建东街南由北向南1-2,114.41844762438014,38.060477767847075,二环外三环内
7cac11e2f46ed46c339ec3d569853759,NULL,裕华路休门街北由南向北1,114.50653584729567,38.03584610732429,二环内
b3f61131b6eceeb2b14835fa648a48ff,NULL,裕华路休门街北由北向南1,114.50647385030618,38.035856109212496,二环内
a6ea8471c120fe8cc35a2954c9b9c595,NULL,中山路长兴街北由北向南1,114.40816905825423,38.0403458734501,二环外三环内
ddeebdeefdb7e7e7a697e1c3e3d8ef54,NULL,民生路平安大街东由西向东1,114.50175901190667,38.04100419751244,二环内
186fb23a33995d91ce3c2212189178c8,NULL,中山路长兴街北由南向北1,114.40819306649374,38.04034188015362,二环外三环内
72e6d3238361fe70f22fb0ac624a7072,NULL,民生路平安大街东由东向西1,114.50175901191922,38.04101919751572,二环内
e3ca0449fa2ea7701a7ac53fb719c51a,NULL,新华路简西街西由东向西1-2,114.41416313275136,38.053465557025284,二环外三环内
ac1ad983e08ad3304a97e147f522747e,NULL,南二环汇宁街南由南向北1-2,114.46351910471466,38.00429481243756,二环内
db60b95decdeed944b4cd8685417cfdc,NULL,新华路简西街西由西向东1-2,114.41415813100055,38.053400555621955,二环外三环内
020bf2c45e7bb322f89a226bd2c5d41b,NULL,中山路维明大街东由西向东1-4,114.46953632299014,38.04280381080203,二环内
7993e11204b215b27694b6f139e34ce8,NULL,农兴路中营街西由西向东1,114.40299730108676,38.046558442377325,二环外三环内
e139c454239bfde741e893edb46a06cc,NULL,新石北路中华大街西由东向西1,114.47735754677007,38.018577852081016,二环内
be1df9a5d08724971f64a511e24fc904,NULL,新石北路中华大街西由西向东1,114.47738655068356,38.018554855420504,二环内
af5d5ef24881f3c3049a7b9bfe74d58b,NULL,华星路维明大街南由南向北1-2,114.47061449564895,38.01616696669955,二环内
4a06d868d044c50af0cf9bc82d2fc19f,NULL,中山路康乐街东由西向东1-3,114.47363101835731,38.04301839392535,二环内
f83630579d055dc5843ae693e7cdafe0,NULL,华星路维明大街南由北向南1-2,114.47048247245631,38.01615094728412,二环内
2aaaddf27344ee54058548dc081c6541,NULL,自强路师范街西由西向东1-2,114.46613667167574,38.039684269361025,二环内
cc0991344c3d760ae42259064406bae1,NULL,新石北路广平街北由北向南1-2,114.47306791009153,38.01863331360075,二环内
a9365bd906e11324065c35be476beb0c,NULL,裕华路西二环南由北向南1-4,114.43738000310096,38.03457997233516,二环内
1fb2a1c37b18aa4611c3949d6148d0f8,NULL,新石中路维明大街南由南向北1-2,114.47048947167944,38.01343294768696,二环内
cbf8710b43df3f2c1553e649403426df,NULL,裕华路西二环北由南向北1-4,114.43773611681745,38.03476506509246,二环内
d16509f6eaca1022bd8f28d6bc582cae,NULL,新石中路维明大街南由北向南1-2,114.47037245105955,38.01343693042109,二环内
0fe473396242072e84af286632d3f0ff,NULL,裕华路西二环北由北向南1,114.43741901563759,38.03473798251352,二环内
f708f064faaf32a43e4d3c784e6af9ea,NULL,裕华路时光街南由南向北1,114.42829100439313,38.034423527510384,二环外三环内
b1301141feffabac455e1f90a7de2054,NULL,汇新路滨河街北由南向北1,114.46969332028208,38.00040382571136,二环外三环内
5314b9674c86e3f9d1ba25ef9bb32895,NULL,裕华路时光街南由北向南1,114.42825199118,38.03441551674985,二环外三环内
6547884cea64550284728eb26b0947ef,NULL,南三环红旗大街北由北向南1-2,114.46482235689528,37.97267903081208,二环外三环内
3cf2559725a9fdfa602ec8c887440f32,NULL,裕华路城角街西由西向东1-4,114.44412009096033,38.034667678236765,二环内
fc79250f8c5b804390e8da280b4cf06e,NULL,汇丰路汇宁街北由南向北1-2,114.46499440782752,37.99469006712405,二环外三环内
feecee9f1643651799ede2740927317a,NULL,裕华路城角街西由东向西1-4,114.4441150895407,38.0348136770219,二环内
7a68443f5c80d181c42967cd71612af1,NULL,南二环红旗大街南由北向南1-2,114.45932316225768,38.00442503250756,二环内
6048ff4e8cb07aa60b6777b6f7384d52,NULL,南二环红旗大街南由南向北1-2,114.45943018739192,38.00442105326793,二环内
24e27b869b66e9e62724bd7725d5d9c1,NULL,裕华路城角街东由西向东1-4,114.4441981142861,38.03466769731902,二环内
9ed9328611fe3f45b3cce8ffe386ee97,NULL,裕华路城角街东由东向西1-4,114.4441931128721,38.034821696105766,二环内
2f4fe03d77724a7217006e5d16728874,NULL,建国路西二环西由西向东1-2,114.43739500540703,38.02909397604891,二环内
07a9d3fed4c5ea6b17e80258dee231fa,NULL,工农路西二环东由东向西1-2,114.4378181415976,38.0318280863192,二环内
61d77652c97ef636343742fc3dcf3ba9,NULL,工农路友谊大街北由南向北1-3,114.45238743503964,38.03176260053755,二环内
49d4b2faeb4b7b9e745775793141e2b2,NULL,工农路金竹街东由西向东1,114.43369380699707,38.031789997450105,二环外三环内
2dbf21633f03afcf882eaf10e4b5caca,NULL,工农路金竹街东由东向西1,114.43369380700493,38.03180899745044,二环外三环内
28b60a16b55fd531047c0c958ce14b95,NULL,裕华路红旗大街南由北向南1-2,114.45955823755108,38.03488608345949,二环内
8c9f32e03aeb2e3000825c8c875c4edd,NULL,新石北路城角街南由南向北1,114.44409207426095,38.01873867000498,二环内
03e7ef47cee6fa4ae7567394b99912b7,NULL,建国路红旗大街西由西向东1-2,114.4594702121969,38.02775306541123,二环内
b427426b8acd2c2e53827970f2c2f526,NULL,新石北路城角街南由北向南1,114.44405306259273,38.01873866045777,二环内
7cf64379eb6f29a4d25c4b6a2df713e4,NULL,华星路广平街北由北向南1,114.4732989454487,38.01637834427278,二环内
54b2b21af94108d83c2a909d5b0a6a50,NULL,新石北路友谊大街西由西向东1-2,114.45226439428696,38.018685571815595,二环内
e9412ee564384b987d086df32d4ce6b7,NULL,新石北路友谊大街西由东向西1-2,114.45227539729171,38.01878657424941,二环内
cf05968255451bdefe3c5bc64d550517,NULL,振岗路城角街北由南向北1,114.44408207298423,38.02202266790742,二环内
1843e35d41ccf6e63273495ba42df3c1,NULL,振岗路城角街北由北向南1,114.44405506494046,38.02209066130397,二环内
70c445ee64b1ed0583367a12a79a9ef2,NULL,裕华路苑东街东由西向东1-4,114.41843861484163,38.03420776831615,二环外三环内
7b41bfa5085806dfa24b8c9de0ce567f,NULL,裕华路时光街东由西向东1-4,114.42831101117314,38.03444153302763,二环外三环内
250413d2982f1f83aa62a3a323cd2a87,NULL,东风路平安大街西由西向东1-2,114.50218298987221,38.0246731903379,二环内
e82c4b19b8151ddc25d4d93baf7b908f,NULL,新华路西二环南由北向南1-3,114.43577549338048,38.04911855115281,二环内
57bafb2c2dfeefba931bb03a835b1fa9,NULL,东风路平安大街西由东向西1-2,114.50220398952266,38.02478719018193,二环内
d9ff90f4000eacd3a6c9cb27f78994cf,NULL,中山路西二环南由北向南1-4,114.43685783883588,38.041181835950965,二环内
73f490f3f868edbcd80b5d3f7cedc403,NULL,槐安路大经街北由南向北1,114.495681990563,38.02262014004215,二环内
5e6bd7a6970cd4325e587f02667f7f73,NULL,槐安路大经街北由北向南1,114.49564898990603,38.02264513924932,二环内
fec87a37cdeec1c6ecf8181c0aa2d3bf,NULL,南三环石铜路北由南向北1-3,114.42972667562225,37.99869514052453,二环外三环内
c8067ad1937f728f51288b3eb986afaa,NULL,新华路长兴街北由南向北1,114.40899234347783,38.05717710072193,二环外三环内
4c8c76b39d294759a9000cbda3a6571a,NULL,南三环石铜路北由北向南1-2,114.43109293246397,37.99768313317869,二环外三环内
53f0d7c537d99b3824f0f99d62ea2428,NULL,新华路长兴街北由北向南1,114.40889030835531,38.05715107216636,二环外三环内
1f34004ebcb05f9acda6016d5cc52d5e,NULL,汇锦路友谊大街西由西向东1,114.45267049266492,38.00219665788411,二环外三环内
b06b5541a62ed438f956b662b4e1ec28,NULL,新华路铁道桥西由东向西1-3,114.42452372436364,38.05105447978408,二环外三环内
f55cadb97eaff2ba1980e001b0bd9842,NULL,新石中路红旗大街南由北向南1-2,114.45937518045204,38.013473044503066,二环内
2c6ae45a3e88aee548c0714fad7f8269,NULL,新华路铁道桥西由西向东1-3,114.42452372436364,38.05105447978408,二环外三环内
b4baaff0e2f11b5356193849021d641f,NULL,新华路西三环辅路南由南向北1-2,114.3841123973627,38.06258562855813,二环外三环内
ea4eb49329550caaa1d2044105223721,NULL,新石南路红旗大街北由南向北1-2,114.45944319309095,38.00843205666237,二环内
bb03e43ffe34eeb242a2ee4a4f125e56,NULL,育新路友谊大街北由南向北1-2,114.45239942630874,38.01190360037785,二环内
6a4cbdaedcbda0fa8ddc7ea32073c475,NULL,自强路站前街西由东向西1-2,114.48729160885075,38.0409767631665,二环内
7989edad14ebcd3adfacc7344dc6b739,NULL,自强路站前街西由西向东1-2,114.48733461198135,38.04091676601515,二环内
3430095c577593aad3c39c701712bcfe,NULL,槐安路广平街东由东向西1-2,114.4734559767501,38.024694367188935,二环内
46515dcd99ea50dd0671bc6840830404,NULL,裕华路友谊大街东由西向东1-4,114.45241044301385,38.0348016059054,二环内
8a20a8621978632d76c43dfd28b67767,NULL,中山路西里街南由南向北1-2,114.45695961722089,38.042174568745345,二环内
c30fb4dc55d801fc7473840b5b161dfa,NULL,槐安路普圆街南由南向北1,114.4970790124756,38.02216616868909,二环内
33bb83720ba9d2b6da87114380314af5,NULL,槐安路普圆街南由北向南1,114.49697201120058,38.02215416683314,二环内
d9fc0cdb67638d50f411432d0d41d0ba,NULL,普安路胜利大街东由西向东1-2,114.48811565238337,38.02221381211236,二环内
9af76329c78e28c977ab1bcd1c3fe9b8,NULL,普安路胜利大街东由东向西1-2,114.48814765465447,38.0223028141309,二环内
f7696a9b362ac5a51c3dc8f098b73923,NULL,育新路友谊大街北由北向南1-3,114.4522483859986,38.01200556722541,二环内
696b35cc35e710279b9c2dedc08e22d7,NULL,槐安路苑东街西由东向西1-3,114.41845461800251,38.02437877338929,二环外三环内
e71e5cd119bbc5797164fb0cd7fd94a4,NULL,元北路平安大街西由西向东1,114.50195599616448,38.02666319271452,二环内
7884a9652e94555c70f96b6be63be216,NULL,元北路平安大街西由东向西1,114.5019399964968,38.02668519284174,二环内
8c1b6fa97c4288a4514365198566c6fa,NULL,元北路大经街南由南向北1,114.49566199351435,38.0266571405911,二环内
87682805257e619d49b8e0dfdc14affa,NULL,元北路大经街南由北向南1,114.49563499296754,38.02667013993789,二环内
83691715fdc5baf20ed0742b0b85785b,NULL,槐安路苑东街西由西向东1-4,114.41849763291111,38.02426078554959,二环外三环内
30aaf34d6afd4b11cc3b3ac4704c7908,NULL,自强路南小街南由南向北1-2,114.48434736304436,38.04058154522227,二环内
4e0223a87610176ef0d24ef6d2dcde3a,NULL,工农路红旗大街东由西向东1,114.45970126887659,38.03168211064504,二环内
f8b932c70d0b2e6bf071729a4fa68dfc,NULL,槐安路师范街北由南向北1,114.46629969387256,38.02511929405026,二环内
831caa1b600f852b7844499430ecac17,NULL,槐安路师范街北由北向南1,114.46626768748597,38.02511028874116,二环内
b06f50d1f89bd8b2a0fb771c1a69c2b0,NULL,裕华路中华大街东由西向东1-4,114.47833768988626,38.035305966538544,二环内
415e1af7ea95f89f4e375162b21ae38c,NULL,工农路红旗大街东由东向西1,114.45971727262732,38.03170411373368,二环内
8d09e4b85c783cbc30c9b8ae175f2d33,NULL,裕华路中华大街南由北向南1-4,114.47726654731999,38.035206845143904,二环内
c5dc3e08849bec07e33ca353de62ea04,NULL,工农路师范街北由南向北1-2,114.46589861828832,38.03183922840009,二环内
6ef80bb237adf4b6f77d0700e1255907,NULL,槐安路广平街西由西向东1-2,114.47312792424304,38.02458832303185,二环内
4a8423d5e91fda00bb7e46540e2b0cf1,NULL,槐安路广平街南由北向南1,114.47330495247486,38.024406346871814,二环内
070dbb6024b5ef93784428afc71f2146,NULL,工农路中华大街西由东向西1-2,114.47705251520959,38.03158881952271,二环内
4a1590df1d5968d41b855005bb8b67bf,NULL,槐安路师范街南由南向北1,114.46630069364456,38.024519294103676,二环内
0d7363894acdee742caf7fe4e97c4d49,NULL,槐安路师范街南由北向南1,114.46627368825263,38.02450628962355,二环内
a6d259bfbfa2062843ef543e21d7ec8e,NULL,建国路城角街东由东向西1-2,114.44425112654746,38.027843709778985,二环内
31c97cbb941d3e92d0e6f9925e9bc4d7,NULL,槐安路师范街东由西向东1-4,114.46641771716178,38.024853313533605,二环内
9407c826d8e3c07ad37cb2d13d1cb641,NULL,学府路友谊大街西由东向西1,114.46790709386113,38.14493755790175,三环外
234833147b97bb6aed53a8f4f1c7a7d8,NULL,工农路红旗大街北由南向北1-2,114.45957723999086,38.031851086722114,二环内
ba3e9b6a519cfddc560b5d53210df1bd,NULL,永安路站前街南由北向南1-2,114.48739461460981,38.03872676954643,二环内
6be93f7a96fed60c477d30ae1de032fd,NULL,工农路红旗大街北由北向南1-2,114.45954523250984,38.03187308053566,二环内
82ca5dd156cc926b2992f73c2896f761,NULL,槐安路南长街南由南向北1,114.48291221073163,38.02448741994427,二环内
55a988dfb00a914717b3000a3374694c,NULL,永安路站前街南由南向北1-2,114.48745661914073,38.03871577363352,二环内
217c0e01c1828e7279051f1b6675745d,NULL,裕华路休门街东由西向东1-4,114.50670483886422,38.03569510205162,二环内
9824f9c1543628a85bb51d2dd6fcf8a3,NULL,槐安路南长街南由北向南1,114.48286920634449,38.02447041613363,二环内
4de754248c196c85ee4fbdcee89179bd,NULL,学府路友谊大街西由西向东1,114.4679661050945,38.14487856730078,三环外
7827d1ec626c891d4b61a15c9dff296e,NULL,槐安路中华大街东由西向东1-4,114.47770759862439,38.02467189359596,二环内
f7ac67a9aa8d255282de7d11391e1b69,NULL,槐安路南长街西由东向西1-2,114.48270318976887,38.024990401474845,二环内
40c48dab939a482f04dcecde07e27de6,NULL,工农路师范街南由南向北1,114.46593562553676,38.03155223454827,二环内
1bf0c59238dd24a7f09a889483a50e8f,NULL,学府路112公交总站东由东向西1-4,114.46531178078237,38.147434019561175,三环外
2aedcba61ca55ceb62d785c6b7f10a83,NULL,工农路师范街南由北向南1,114.46590361910702,38.031573229193704,二环内
9657c1fffd38824e5ab0472e022e577e,NULL,汇丰路红旗大街东由西向东1-2,114.4612385969952,37.9946743948921,二环外三环内
c3a690be93aa602ee2dc0ccab5b7b67e,NULL,新石南路红旗大街东由西向东1-2,114.45957222325852,38.0083430816098,二环内
1b113258af3968aaf3969ca67e744ff8,NULL,学府路112公交总站东由西向东1-4,114.46572086412087,38.1470762690002,三环外
f0f6ba4b5e0000340312d33c212c3ae8,NULL,新华路西二环西由西向东1-3,114.43557042693027,38.049127496947506,二环内
86ecfcbc1e9f1ae5ee2d71910877da36,NULL,学府路工程职业学院西由东向西1,114.43684489245368,38.17030980847943,三环外
0e4a2c65bdaddd66a53422d93daebe68,NULL,裕华路大经街北由北向南1,114.49667901921468,38.03636916493915,二环内
b21f9f98829dea9a48fd8aaddc1f159d,NULL,裕华路大经街北由南向北1,114.49672801990991,38.03638616587222,二环内
85353d3b2f39b9c9b5ee3576578c04b7,NULL,学府路工程职业学院西由西向东1,114.43690891304404,38.17020882532935,三环外
4be5a36cbaca8ab9d2066debfe4e65c1,NULL,新华路西二环西由东向西1-2,114.43557642893191,38.049254498531575,二环内
5acdc9ca5d99ae66afdfe1eea0e3b26b,NULL,新石中路红旗大街西由东向西1-2,114.45915612889979,38.01352000191771,二环内
1d94108e907bb8311d8802b48fd54b4a,NULL,新石中路红旗大街西由西向东1-2,114.45911811990302,38.013485994501366,二环内
1680829293f2a8541efa2647a0290f88,NULL,塔南路金利街北由北向南1,114.4986640140526,38.01189418646979,二环内
2288f691b58edecadcc9a8691762b4fd,NULL,新石中路广平街南由南向北1,114.47367300241514,38.01324839349864,二环内
eb0ecdb070a1a0ac46de0cd733d39cf3,NULL,裕华路南长街南由南向北1-2,114.48454537679547,38.03504456010905,二环内
dbab2adc8f9d078009ee3fa810bea142,NULL,新石南路维明大街南由北向南1-2,114.47018241348772,38.008122900962164,二环内
dbd22ba3bd0df8f385bdac3e9f8be207,NULL,槐北路建设大街西由东向西1,114.51183749876816,38.03180187498823,二环内
8169e05e2a0debcb15458f2cc1eff0ea,NULL,新石南路维明大街南由南向北1-2,114.47034844290468,38.00813192558342,二环内
42fe880812925e520249e808937738d2,NULL,新石南路广平街北由南向北1-2,114.47408006240411,38.00844944592953,二环内
48c3ec5c3a93a9e294a8a6392ccedeb4,NULL,新石南路广平街北由北向南1-2,114.47404805743697,38.00844944173985,二环内
02f657d55eaf1c4840ce8d66fcdaf90c,NULL,槐中路休门街西由东向西1,114.50666183477658,38.02822910158815,二环内
852c44ddce7e0c7e4c64d86147300831,NULL,槐安路维明大街北由南向北1-3,114.47097756551682,38.02510302160165,二环内
c0e90532fb42ac6de18e25e95db73047,NULL,东风路休门街北由南向北1,114.50703481298419,38.024706088704,二环内
60519c3dd22587d6de04d5f1e28bd41d,NULL,槐安路维明大街北由北向南1-3,114.47083754123827,38.02514100124397,二环内
8f125da0b3432ed853c0b6f7ee5aaa6b,NULL,工农路礼让街东由东向西1-2,114.480807988861,38.03154222457959,二环内
ef1e491a766ce3127556063d49bc2f98,NULL,钟旺路西三庄街北由北向南1-2,114.44559254528824,38.06758103612273,二环内
74934548253bcab8490ebd74afed7031,NULL,工农路中华大街东由东向西1-2,114.59119925650913,37.98098846182981,二环外三环内
9457fc28ceb408103e13533e4a5b6bd1,NULL,槐安路南长街北由南向北1-2,114.48287520738883,38.02501141679264,二环内
5b168fdba5ee5ea262cc2d4c0b457697,NULL,钟旺路西三庄街北由南向北1-2,114.44561355147526,38.06759304117944,二环内
17b3c7061788dbe82de5abe9f6fe22b3,NULL,南二环胜利大街北由南向北1-2,114.49220686420658,38.002483019758635,二环内
309a8e73b2cdb95fc1affa8845504e87,NULL,槐中路胜利大街北由南向北1,114.48911372348137,38.029040873608125,二环内
7e83722522e8aeb7512b7075311316b7,NULL,槐中路胜利大街北由北向南1,114.48909172209567,38.02902887234037,二环内
eaa52f3366768bca401dca9ea5b181dd,NULL,南二环胜利大街北由北向南1-2,114.492045857335,38.00258001300004,二环内
ef0917ea498b1665ad6c701057155abe,NULL,新石北路友谊大街东由东向西1-2,114.45255447179616,38.01879063546003,二环内
fb89fd138b104dcf8e2077ad2a23954d,NULL,新石北路友谊大街东由西向东1-2,114.45260848616475,38.018769647273515,二环内
743c41a921516b04afde48bb48e28ce6,NULL,槐中路建设大街西由东向西1,114.51184549521848,38.02828487367084,二环内
7876acb66640bad41f1e1371ef30c180,NULL,中山路休门街南由南向北1,114.50606587560337,38.0432231227925,二环内
978fce5bcc4eccc88ad48ce3914124a2,NULL,槐安路平安大街东路北由东向西1-5,114.502157988549,38.022460189974105,二环内
18bb68e2b38e4a8ce7cf4f6b2625768c,NULL,中山路休门街南由北向南1,114.5060288772957,38.043231123835426,二环内
026a39ae63343c68b5223a95f3e17616,NULL,新石南路广平街东由东向西1-2,114.47426209041312,38.008282469623914,二环内
ce758408f6ef98d7c7a7b786eca7b3a8,NULL,新石南路广平街东由西向东1,114.4742350862385,38.00826546610766,二环内
bd70364a8fcba02366697df66f50b4d4,NULL,天翼路友谊大街西由东向西1,114.4541649302257,38.07563198751717,二环内
ed57844fa5e051809ead5aa7e3e1d555,NULL,新华路靶场街南由南向北1,114.44887247969474,38.04849580988981,二环内
4ebccfb3e317c7789f04f7a558df4537,NULL,中山路铁道桥东由西向东1-4,114.49357285055223,38.0435123626623,二环内
50abc3e730e36b387ca8e02c26dc0a22,NULL,新华路靶场街南由北向南1,114.44884547207388,38.04847880365051,二环内
32b991e5d77ad140559ffb95522992d0,NULL,天翼路友谊大街西由西向东1,114.45410591487072,38.07561097490784,二环内
6403675579f6114559c90de0014cd3d6,NULL,中山路铁道桥东由东向西1-3,114.49266051699466,38.04365179875808,二环内
92f54963fc39a9d87c2253186808ea61,NULL,四中路平安大街东由西向东1-2,114.50200700494321,38.038374195127616,二环内
880610aa9f9de9ea7c545169c716f477,NULL,民生路建设大街西由东向西1-2,114.51120855622933,38.04081591170787,二环内
d3fad7d3634dbfb61018813546edbccb,NULL,丰产路友谊大街东由西向东1,114.45606744247563,38.11672338486708,三环外
a431d70133ef6cf688bc4f6093922b48,NULL,丰产路友谊大街东由东向西1,114.45616946813607,38.11675340595847,三环外
53c6de78244e9f528eb3e1cda69699bb,NULL,友谊大街天轩园林北由北向南1-3,114.45839002769407,38.13755585277024,三环外
d756d3d2b9dac72449a6a6926534558a,NULL,友谊大街天轩园林北由南向北1-3,114.45847004687097,38.137445868649344,三环外
339a18def9898dd60a634b2ad8fbbd58,NULL,石清路石闫收费处东由东向西1-3,114.41809351816738,38.1311956488797,三环外
8dc5983b8c4ef1d8fcd5f325f9a65511,NULL,307国道太行大街东350米由东向西1-3,114.63656291971029,38.04661723133227,二环外三环内
321cf86b4c9f5ddd04881a44067c2a5a,NULL,石清路石闫收费处东由西向东1-3,114.41911887554947,38.13165493904216,三环外
1175defd049d3301e047ce50d93e9c7a,NULL,商贸路中华大街北由南向北1-4,114.47464422826337,38.112201531029115,三环外
6aed000af86a084f9cb0264161e29dd3,NULL,307国道太行大街东350米由西向东1-3,114.63650893160411,38.0465412403551,二环外三环内
5df07ecf4cea616e3eb384a9be3511bb,NULL,307国道京珠高速东50米由东向西1-2,114.59178007314465,38.05498331067777,二环外三环内
c4f796afbc6267501964b46427b3f6ba,NULL,307国道京珠高速东50米由西向东1-2,114.59186604410745,38.055110288309876,二环外三环内
a3d06db1f8c85b2837b4603a51834425,NULL,商贸路中华大街南由北向南1-4,114.47457921824396,38.11206652266577,三环外
75e33da9b103b7b91dcd8da0abe1354b,NULL,方兴路二级路路西由北向南1,114.57311134452301,37.99058914861609,二环外三环内
17f98ddf040204eda0af36a108cbdea4,NULL,长江大道燕山街南150米路西由北向南1-3,114.64732742941526,38.03744903549979,二环外三环内
40173ea48d9567f1f393b20c855bb40b,NULL,北二环西三庄街北由北向南1,114.44840036751457,38.08616669987265,二环内
8bd39eae38511daad6152e84545e504d,NULL,珠江道封龙大街北路西由北向南1,114.59544083613412,38.023729364015324,二环外三环内
06fe1c234519f6812fc4c1baae25d6af,NULL,湘江大道秦岭大街北由南向北1-3,114.62972052770975,38.0333914546523,二环外三环内
8e68c3c7bf14ad0bcaba52babfa470bd,NULL,北二环西三庄街北由南向北1,114.44844337970564,38.08613270987669,二环内
f1748d6b0fd9d439f71450117eba2725,NULL,珠江道黄山街南100米西由北向南1-2,114.66476272324086,38.02396611387542,二环外三环内
6412fef87392ae8c987b0ecc79da1902,NULL,段高路信家庄北由西向东1,114.6437284895279,37.965642147388586,二环外三环内
e354fd90b2d5c777bfec87a352a18976,NULL,合作路友谊大街西由东向西1,114.45292959278456,38.05405072077018,二环内
4de81d9105c85bca6e6e4666e6dd536a,NULL,黄河道东旭集团南由西向东1-3,114.6684249961434,38.02527209036679,二环外三环内
8e065119c74efe3a47aec8796964cf8b,NULL,合作路友谊大街西由西向东1,114.45296760284623,38.05403372904339,二环内
8cff9bf6694dccfc3b6a613d05d51d16,NULL,黄河道东旭集团北由东向西1-3,114.66885417475753,38.02508256649398,二环外三环内
dd17e652cd2a08fdb8bf7f68e2ad3814,NULL,珠江道黄山街南100米西由南向北1-2,114.66479072120512,38.0239911124657,二环外三环内
e113bb92c69391dd39e2488f9f588382,NULL,珠峰大街闽江道南50米由北向南1-2,114.60268443982766,38.02759551992313,二环外三环内
75455e062929d32a333868084286bb68,NULL,湘江道兴安街北150米由南向北1-3,114.65879065331993,38.03413846087432,二环外三环内
fc03d48253286a798f5116ec00e99b2b,NULL,新华路虹光街北由北向南1-2,114.44303477169112,38.048987411592485,二环内
b75bd27b5a48a1b48987a18d831f6336,NULL,珠江大道兴安街南150米西由北向南1-3,114.65910842369925,38.024380979441894,二环外三环内
c60d870eaad6a3946ab3e8734466e532,NULL,新华路虹光街北由南向北1-2,114.44314680558129,38.048944439318156,二环内
09a5e2a11bea20817477e0b1dfe2cc21,NULL,淮河道昆仑大街北50米由南向北1-3,114.61969560734083,38.041721321736574,二环外三环内
f21e255f89e0f258accbe4e984eef486,NULL,商贸路友谊大街北由北向南1-4,114.45520622165614,38.11279020574861,三环外
38181d991caac98be8fb2ecb8bd0f166,NULL,太行大街韩通村桥南由南向北1-4,114.64046910261263,38.02427461348205,二环外三环内
f35a2bc72dfdc2aae569a0c7370bd7f5,NULL,商贸路友谊大街北由南向北1-4,114.4553112484522,38.11277322779122,二环内
a7789ef88d599b8df86bbee632b2994d,NULL,太行大街韩通村桥南由北向南1-4,114.47986989378535,38.05076613329278,二环外三环内
0b7e926154c1274e8b602ff0d7c133d7,NULL,太行大街淮河道南由北向南1-5,114.63588007220109,38.041503347256686,二环外三环内
eb06b9db06012a7a4179b8f3cb5384d3,NULL,太行大街淮河道南由南向北1-5,114.63611601975487,38.04149930746802,二环外三环内
30f8f6b940d1073d8b6a5eebc46dd6e5,NULL,警安路西三庄街西由东向西1,114.44854541365912,38.094990732837594,二环外三环内
d8bf84be3800d12f74d8b05e9b89836f,NULL,警安路西三庄街西由西向东1,114.44856741988468,38.094969737948624,二环外三环内
0c215f194276000be6a6df6528067151,NULL,赵佗路西祥街西由东向西1,114.4579214875567,38.096297103843284,二环外三环内
217e342fc01668b10cb1188d40d3370e,NULL,赵佗路西祥街西由西向东1,114.45770003371203,38.09631338946951,二环外三环内
7180cffd6a8e829dacfc2a31b3f72ece,NULL,合作路泰华街西由东向西1,114.46319006841063,38.054098761963914,二环内
e0688d13958a19e087e123148555e4b4,NULL,合作路泰华街西由西向东1,114.46319006840234,38.054086761962836,二环内
1680e9fa7b4dd5d62ece800239bb53bd,NULL,合作路水源街西由东向西1,114.46610367494446,38.053571265562304,二环内
b096577e264d1ebd6b41041f392eec23,NULL,合作路水源街西由西向东1,114.46604066226834,38.053528255045144,二环内
18ad9899f3f21a5a1583584d5f11c0c0,NULL,长江道秦岭街北200米路东由南向北1-3,114.6296051553342,38.03848877545316,二环外三环内
358aee4cc897452c00244351e4d91f69,NULL,307国道泰山街西200米由东向西1-3,114.65041833246094,38.044476284513344,二环外三环内
1b9812b99fe2672af746cefda86be5f9,NULL,307国道泰山街西200米由西向东1-3,114.6503893368963,38.04439928781472,二环外三环内
2417dc8af8570f274e6775d4d60496da,NULL,淮河道中诚医药北门由东向西1-2,114.63115377355301,38.04144576444801,二环外三环内
98b418276d571e623651fc1d471c7811,NULL,黄河道昆仑街西200米路北由东向西1-4,114.61906078841511,38.04488446011759,二环外三环内
e727fa59ddefcefb5d39501167623132,NULL,黄河道昆仑街东150米路南由西向东1-4,114.6202350537495,38.04483743386274,二环外三环内
1102a326d5f7c9e04fc3c89d0ede88c9,NULL,长江道太行大街东200米路南由西向东1-4,114.636997926838,38.03815080131881,二环外三环内
7edccc661418aeb5761dbcdc06ad490c,NULL,长江道秦岭大街东120米路南由西向东1-4,114.63048883680263,38.037923678967985,二环外三环内
5ac8bb8a7d745102a978c5f8ccdb61b8,NULL,黄河道祁连街南50米东由北向南1-2,114.61385652172213,38.044153185529254,二环外三环内
0bed45bd5774ffddc95ffe500024f628,NULL,长江道兴安街南150米西由北向南1-3,114.65875395580258,38.037720752624274,二环外三环内
028ee724157b05d04e7bdcf237d12e60,NULL,湘江道阿里山街南70米路西由北向南1-3,114.67028280722906,38.03391995355507,二环外三环内
0e900ad84f63618452210ab8baae0218,NULL,珠峰大街淮河道交口东200米由东向西1-2,114.60263015818506,38.04086765235112,二环外三环内
e97c864e8ac67f7aed5ce53ec28638f5,NULL,珠江道燕山大街东由西向东1-4,114.64775976177114,38.02443060499313,二环外三环内
94aef38441efa3380a3bed3faf1f9d5d,NULL,长江道珠峰大街南50米路东由南向北1-2,114.60221719273754,38.03633544642958,二环外三环内
9813b270ed0288e7c0388f0fd4ec68f5,NULL,海河道天桂街西150米由东向西1-2,114.6240300027251,38.048430429555495,二环外三环内
220a7f49d42406598587a66f02584ac3,NULL,海河道天桂街西150米由西向东1-2,114.62383955427238,38.048398588958214,二环外三环内
dcda54e29207294d8e7e1b537338b1c0,NULL,长江道珠峰大街南50米路西由北向南1-2,114.60218550307474,38.03603411441859,二环外三环内
8420d359404024567b5aefda1231af24,NULL,湘江道阿里山街东150米南由东向西1-2,114.67076578823028,38.03422417196804,二环外三环内
7c4bf50b715509a963ce81b168ca674b,NULL,湘江道阿里山街东150米南由西向东1-2,114.67097148062656,38.03417995741405,二环外三环内
3a0844cee4fcf57de0c71e9ad3035478,NULL,湘江道阿里山街北150米东由南向北1-3,114.6701935105874,38.034571025593564,二环外三环内
573eec40e4ef4f2089531dd5cbf629f8,NULL,太行大街学苑路东北角由南向北车尾1-5,114.63990222073116,38.01392470269958,二环外三环内
b38e5ff5f816ac6e4169bce9314b2996,NULL,段高路东客庄丁字路口西100米由西向东1-2,114.63621601787361,37.96568130369823,二环外三环内
577fd60255d4bb0f466464849ffe6d8e,NULL,珠江大道燕山大街西150米由东向西1-5,114.6470814752732,38.02454692992732,二环外三环内
f6185f0ef02dcaec414a3171cd01c697,NULL,和平路祁连街东100米南由西向东1-4,114.61483162788731,38.052788589168706,二环外三环内
110eec23201d80e40d0c4a48954e2ff5,NULL,太行大街珠江道西南角由南向北车尾1-5,114.64046910261263,38.02427461348205,二环外三环内
d790c9e6c0b5e02c87b375e782ac01bc,NULL,海河道祁连街西200米南由东向西1-2,114.61349553064005,38.04821420862616,二环外三环内
3bd4017318837e92a66298c7855f4427,NULL,海河道祁连街西200米南由西向东1-2,114.61354311622615,38.04821739756805,二环外三环内
cf9b2d0406020c56599f9a93708832b5,NULL,闽江道泰山街东50米由东向西1-2,114.65360168143633,38.02927647051991,二环外三环内
dbbf603ff0e99629dda5d75b6f75f966,NULL,黄河大道天山大街东由西向东1-4,114.60836961627541,38.044517116310594,二环外三环内
dc2b690516158a874dd8aabe1365c6a0,NULL,黄河大道祁连街西由东向西1-4,114.6138699176371,38.04474281233109,二环外三环内
fb4ab556bc42d6f0ee0f9e24ec4d1af0,NULL,黄河道祁连街北行50米东由南向北1-2,114.61380903597197,38.04551711631052,二环外三环内
0415740eaa4d9decbc8da001d3fd805f,NULL,黄河道祁连街北行50米东由北向南1-2,114.61385662162185,38.04518407533919,二环外三环内
f1b0775946bc0329b35b823b86eeb5f5,NULL,和平路昆仑大街西由西向东1-4,114.6192553318247,38.051820596081285,二环外三环内
df0e09d6f25a15a815563df9827f48fa,NULL,淮河道珠峰大街北由北向南1-2,114.60225558044483,38.040891626354075,二环外三环内
2e7ceec8361275c4e31fee5fe422740b,NULL,和平路祁连街西30米由西向东1-4,114.61335407321484,38.05309993069187,二环外三环内
220c77af02f8ad8561b150d93000ddff,NULL,和平路天山大街东由西向东1-4,114.60814668651815,38.054513168900336,二环外三环内
825f9cd5f0390bc77c1fed3c94885c87,NULL,珠江大道天山大街西由东向西1-5,114.60881047783151,38.023852012173286,二环外三环内
65f2a94c8c2d56d5b43a1a3d9d811102,NULL,昆仑大街淮河道南路西由北向南1-3,114.61964222260733,38.041269513465956,二环外三环内
03fa2f7502f5f6b9169e67d17cbf51bb,NULL,淮河道昆仑大街西由西向东1-2,114.61965721834063,38.04121651020329,二环外三环内
5a99158e0c52f9e7d290906c9d08268d,NULL,淮河道昆仑大街西由东向西1-2,114.61965221976313,38.04123151129126,二环外三环内
de594ef5c314372edec29b93cab9d72e,NULL,长江道阿里山街南300米路西由南向北1-3,114.67000431701078,38.03792540940128,二环外三环内
65fc9fb4897a89789352e211ca2d398f,NULL,珠江道珠峰大街北150米东由南向北1-2,114.60285688349123,38.02406798699061,二环外三环内
bbeb0c1b1fd44e392c7ce2fdbd137e87,NULL,湘江道太行大街北由南向北车尾1-5,114.63633797278858,38.0335232721484,二环外三环内
4bbdcc0e821637155ac4217bdab70d2e,NULL,黄河道昆仑大街北150米东由南向北1-3,114.61963212495613,38.04550325488264,二环外三环内
b1c00bcd4b5183705c134b3365f8c45e,NULL,湘江大道燕山大街东由西向东1-2,114.64740181821571,38.03371464718336,二环外三环内
23fc4cba066f390a8cc729c7592b6ee8,NULL,湘江大道燕山大街东由东向西1-2,114.6474258141899,38.033734644170906,二环外三环内
5e751896e527c862bf67251a474b3819,NULL,学苑路珠峰大街西由东向西1-3,114.60314828823716,38.013746404735,二环外三环内
b7f1f29db7c23648f2bb8d6a8ee0469b,NULL,淮河道秦岭大街西100米由东向西1-2,114.62918196051552,38.04150553545289,二环外三环内
421b3ac5c24ee992edd6087611c60dbb,NULL,307国道石兆大街东200米由东向西1-2,114.5994934897009,38.05526132327527,二环外三环内
08f38e0434442128fab5ead6217ca759,NULL,淮河道秦岭大街西100米由西向东1-2,114.62895961641529,38.04144190807419,二环外三环内
361440528766bbaaaa1901845cf4152b,NULL,307国道石兆大街东200米由西向东1-2,114.59948849134616,38.055161324558135,二环外三环内
ec1f850d934f440cfa8e4a18d2cf5463,NULL,珠江道珠峰大街东由西向东1-5,114.60293135922711,38.02355645838522,二环外三环内
47fd3c87f42f55d4b233417d49c34783,NULL,赵佗路红星街北由南向北1-2,114.49480902980483,38.09409612906487,二环外三环内
9ff7c9eb9d37f434db778f59178012da,NULL,赵佗路红星街北由北向南1-2,114.49477902902403,38.094103128202796,二环外三环内
a4613e8d72a61b3b69b32d040f89ad81,NULL,颐宏路中华大街东由西向东1-2,114.4781187027236,38.08824994859675,二环外三环内
56584778d5a8ab88d6393cc4cd11e090,NULL,古城西路友谊大街西由东向西1-2,114.45479711103575,38.103609120439,二环外三环内
96f2b50b5d3613adf9c27049b2a888c7,NULL,兴凯路聚贤里西由西向东1-2,114.47986989378535,38.05076613329278,二环内
cdcb2f5c7b071143529ef7f2705dfbc4,NULL,飞翼路西三庄街东由东向西1,114.44566356934835,38.073467052977435,二环外三环内
78f7d96ea21ccae89a7b581295f34135,NULL,古城西路友谊大街东由西向东1-2,114.45500216368106,38.10359416372656,二环外三环内
22b1f2e0983160db6f7bb9f62f4dbb39,NULL,兴凯路聚贤里西由东向西1-2,114.47986989378535,38.05076613329278,二环内
5a45828dead8c065099cb653a2185df1,NULL,飞翼路西三庄街东由西向东1,114.44565956816365,38.073452052015455,二环内
531db99cb00833bcd414459069dc7387,NULL,古城西路中华大街南由北向南1-4,114.47563436942528,38.103421656061265,二环外三环内
d37124c4c79f357cb02c655671a432fa,NULL,古城西路中华大街南由南向北1-4,114.4758393993284,38.10343668135487,二环外三环内
868b7df964b1af24c8c0a9e43a330c6a,NULL,兴凯路维明大街南由北向南1,114.46952932788761,38.051204810864384,二环内
1006ff12c465532f8c574aeaa4461b16,NULL,联盟路泰华街西由东向西1-2,114.46302204915051,38.078897733156445,二环内
d37b3ca37106b2bfdeaa12647e3bb1c9,NULL,天苑路西三庄街东由东向西1,114.44862643475258,38.09170775193991,二环外三环内
fc192b0c0d270dbf41870a63a8c76c2f,NULL,天苑路西三庄街东由西向东1,114.44861643191172,38.0916927496211,二环外三环内
030e65da2b1c944090548d36b244b28d,NULL,兴凯路维明大街南由南向北1,114.46955833315685,38.05121181526396,二环内
b2ea5e977c5fc1ccfa74171a9723dd61,NULL,赵陀路红星街西由东向西1-2,114.49473302782081,38.09412012687257,二环外三环内
9dc372713683fd865d366d5d9ee810ba,NULL,联盟路泰华街西由西向东1-2,114.46302204911326,38.07884373315545,二环内
044a23cadb567653eb51d4eb40acaa88,NULL,北二环友谊大街北由南向北1-2,114.45442000283708,38.08608204159701,二环内
17693c91d9204b7a7646284bb3adb603,NULL,赵陀路红星街西由西向东1-2,114.49473802794462,38.09410912701694,二环外三环内
9a11883317fde3aef2e2432a58c86779,NULL,古城西路石清路西由东向西1-2,114.44230257743763,38.10523122526156,二环外三环内
d58e2f077670f4de9cd7963c857f2534,NULL,北二环友谊大街北由北向南1-3,114.45433298029964,38.086082023072656,二环内
35c5a2cb362c4d214156f930e7d13252,NULL,古城西路石清路西由西向东1-2,114.44232158320737,38.10514723002219,二环外三环内
b0bef4c9a6e50d43880191492d4fc827,NULL,古城西路景源街南由南向北1-3,114.43662879425537,38.10628076957797,二环外三环内
566a9968b43628588e76be5a85a0f9e8,NULL,古城西路植物园街南由南向北1-2,114.38985607828873,38.09223399097741,二环外三环内
f804d21145597e42851fa736e221da3f,NULL,古城西路景源街南由北向南1-3,114.43636570940201,38.10633070037111,二环外三环内
